Date/time,magx,magy,magz,lat,long,gpitch,groll,gyaw
2020-04-09 22:20:13.002978,25.600587197961634,-49.727759157978944,2.1145095825195312,3.2955081462860107,4.161133289337158,5.559029066884025,23.10106068817525,331.42043433327376
2020-04-09 22:20:16.130119,25.45977772557994,-49.5925419029802,4.932543754577637,8.298739433288574,9.894227027893066,19.607975588131083,70.85733184600691,5.7390374217992415
2020-04-09 22:20:19.259879,25.318823111678388,-49.45767298762913,6.519629955291748,11.44188404083252,13.588101387023926,3.76349485060591,117.75430544209573,38.85561771640897
2020-04-09 22:20:22.373632,25.17772164870968,-49.323148996831144,7.453022003173828,13.164448738098145,15.776704788208008,331.0489113160128,154.14500692479007,53.34994166352552
2020-04-09 22:20:25.501127,25.0364767517684,-49.188963100397075,7.959044456481934,14.361249923706055,17.70418357849121,297.2937544377838,207.94963450873442,34.88983571447574
2020-04-09 22:20:28.630635,24.895088420854552,-49.0551187134215,8.057486534118652,15.32168197631836,18.704713821411133,305.07774878953757,311.6859977926599,323.29445411732473
2020-04-09 22:20:31.762300,24.753558363515427,-48.92160900571526,8.193227767944336,16.00318717956543,19.26190757751465,340.89023377785526,354.88242356153364,318.49047813063675
2020-04-09 22:20:34.890368,24.611886579751022,-48.78843397727835,8.27563762664795,16.344173431396484,19.438310623168945,10.641295561775527,33.32606048890673,338.8575404525555
2020-04-09 22:20:38.020633,24.422774009559,-48.611381813613285,8.82636833190918,16.414974212646484,19.691987991333008,17.847910971099665,82.05978465093328,15.089822527640573
2020-04-09 22:20:41.154198,24.280779499356314,-48.478975181458004,8.461874008178711,16.375511169433594,20.01873207092285,356.5744005840501,125.84391319316713,44.838685844421725
2020-04-09 22:20:44.280758,24.138648385370225,-48.34689639838288,8.16077995300293,16.52194595336914,20.424354553222656,322.05309114133706,162.73224859841025,54.650884379643266
2020-04-09 22:20:47.391534,23.99638237514803,-48.21513521910416,8.158991813659668,16.488250732421875,19.811227798461914,293.0483274157573,232.75296104563716,17.769242559786754
2020-04-09 22:20:50.520390,23.853979761142433,-48.083698473811026,8.320577621459961,16.725868225097656,20.121868133544922,313.11426548019045,324.3708407041,318.41578318187345
2020-04-09 22:20:53.654305,23.711447373542608,-47.952575917219704,7.940384387969971,16.866411209106445,20.126859664916992,349.0606674262437,3.346136354815692,321.75720734649207
2020-04-09 22:20:56.781970,23.568780089706674,-47.82177096442479,7.696747303009033,16.662309646606445,20.092121124267578,15.393933285340806,44.08209895987024,346.7588885533075
2020-04-09 22:20:59.910613,23.425984739823804,-47.691276785237115,7.234531402587891,16.657787322998047,20.09358787536621,15.106080085412495,94.45120946581879,24.08113819255872
2020-04-09 22:21:03.043857,23.235388311034598,-47.51776607465669,7.340909957885742,16.722021102905273,20.18830108642578,349.05648649669797,135.5332468705039,49.11768324621882
2020-04-09 22:21:06.190691,23.092292432828245,-47.38799248042645,7.44077730178833,16.7646427154541,20.338512420654297,312.6990719409237,174.0085494086428,52.463704128148855
2020-04-09 22:21:09.321417,22.949068488574955,-47.25852282961427,7.326016426086426,16.658475875854492,20.325984954833984,292.97820186354875,265.9619759978319,352.77263959861926
2020-04-09 22:21:12.509888,22.80571989336931,-47.12935370712558,7.263733863830566,16.51617431640625,20.25576400756836,322.8462980851235,336.6949625424515,316.55489131231434
2020-04-09 22:21:15.645567,22.662246647211315,-47.00048511296036,6.860810279846191,16.27206039428711,20.37718963623047,357.7506451768212,13.233668248044479,326.91060215073963
2020-04-09 22:21:18.790481,22.51865045764826,-46.87191021692946,6.615622520446777,16.201425552368164,20.415481567382812,18.69693422078352,57.538565417319596,356.95030025846523
2020-04-09 22:21:21.926038,22.37493303222744,-46.74363243412745,6.528603553771973,16.359346389770508,20.39534568786621,10.067013256360855,106.82301797740803,33.181619063433885
2020-04-09 22:21:25.053228,22.18312082976597,-46.573048459606376,6.431588649749756,16.471193313598633,20.371973037719727,339.9230738687396,144.93206528168335,52.454411655783055
2020-04-09 22:21:28.181062,22.039121659041882,-46.445446865532205,6.441061496734619,16.65802001953125,20.295270919799805,304.4770473124133,188.6813839921833,46.27272845689551
2020-04-09 22:21:31.312135,21.895004667554616,-46.31813213940316,6.134660720825195,16.868818283081055,20.276704788208008,297.97717633594607,293.1608479521441,333.7980283059971
2020-04-09 22:21:34.441047,21.750769855304164,-46.19110086612468,5.91780424118042,16.876943588256836,20.899578094482422,332.55139925415926,346.0244178212885,316.7030995871144
2020-04-09 22:21:37.576576,21.606418929837822,-46.064353045696755,5.955438613891602,17.09716033935547,20.55988121032715,5.160800436855132,23.098478876668985,332.63417431671064
2020-04-09 22:21:40.701465,21.46195359870288,-45.937881847930214,5.784002304077148,17.077720642089844,20.274932861328125,19.362703495035923,70.70578360870267,6.201128747454576
2020-04-09 22:21:43.830530,21.317373861899345,-45.81168727282506,5.464819431304932,16.884803771972656,20.02838706970215,3.7795346960980383,118.31311053885115,39.39379222677637
2020-04-09 22:21:46.960972,21.1726814269745,-45.68576932038129,5.24923038482666,16.951541900634766,20.01137924194336,330.2319353139147,154.98516117383664,53.45803282223556
2020-04-09 22:21:50.091551,20.97958514894907,-45.51829649702716,4.916719913482666,16.982467651367188,19.987478256225586,296.6217048045895,212.17177058569118,31.927603162008715
2020-04-09 22:21:53.220586,20.83463316683577,-45.39300692198703,4.772838115692139,16.973922729492188,20.425243377685547,307.0307594204327,313.82012113468164,322.02169617681704
2020-04-09 22:21:56.351053,20.689571901695743,-45.26798713941912,4.642474174499512,16.885990142822266,20.22032928466797,342.85575731530986,355.8074198591292,318.72454871349305
2020-04-09 22:21:59.484726,20.54440306107629,-45.143226904039665,4.464478492736816,16.830652236938477,20.228214263916016,12.231495935469665,34.853632296780084,339.9220937365937
2020-04-09 22:22:02.610823,20.399126644977414,-45.018729630943255,4.2932233810424805,16.878110885620117,20.30901527404785,18.348077186283238,84.98103606838022,17.03796323365746
2020-04-09 22:22:05.721131,20.253742653399108,-44.89449190503531,4.062328338623047,16.956579208374023,19.599584579467773,356.0488644849682,128.13210852739144,45.273693762470664
2020-04-09 22:22:08.850768,20.108254501435958,-44.770513726315826,3.8992483615875244,17.08662223815918,19.64198875427246,320.97489113933716,164.6448245094189,53.675588007678805
2020-04-09 22:22:11.984449,19.96266389663526,-44.64678826459563,3.6022486686706543,17.311996459960938,20.162700653076172,292.72984935513796,238.4589693801575,13.39440991997156
2020-04-09 22:22:15.112759,19.76838087324154,-44.48221485654417,3.3354692459106445,17.511573791503906,19.73320770263672,314.80848365852836,326.8224414840277,317.9785964334793
2020-04-09 22:22:18.240688,19.622549504272598,-44.3590767910926,3.141387462615967,17.40496253967285,19.536733627319336,350.02405024074835,4.447639041272945,322.1045224657872
2020-04-09 22:22:21.374201,19.4766173900134,-44.23618461245114,2.895141363143921,17.303335189819336,19.48435401916504,15.62622801901294,45.57578619927116,347.8710832605802
2020-04-09 22:22:24.500716,19.330586238011232,-44.11353490552522,2.8608837127685547,17.187271118164062,20.418851852416992,14.589635821889491,95.75940242774051,25.12882261689427
2020-04-09 22:22:27.629868,19.184456048266103,-43.99113108540942,2.9716944694519043,17.346385955810547,20.370994567871094,347.4729105527251,136.5795772098365,49.494190594026605
2020-04-09 22:22:30.764380,19.0382285283253,-43.86896973700916,2.8422882556915283,17.377622604370117,20.780363082885742,311.4661066825205,175.40991298103268,51.708445715390944
2020-04-09 22:22:33.890292,18.89190367818882,-43.747044030135264,2.6137583255767822,17.37184715270996,20.948177337646484,292.97534001428653,269.9647947005396,349.1638852449809
2020-04-09 22:22:37.026799,18.696654183027547,-43.584844112820385,2.430955171585083,17.235124588012695,20.873214721679688,323.45228612866543,337.8950045815079,315.51634738863555
2020-04-09 22:22:40.151402,18.55010905929034,-43.46346482108009,2.3727529048919678,16.984745025634766,20.736549377441406,358.12624923211126,14.358546616605866,326.37718145203456
2020-04-09 22:22:43.281615,18.40346831290475,-43.342317755771575,2.0857553482055664,16.698829650878906,20.547346115112305,18.000649368866785,59.0432560914734,356.89044688388157
2020-04-09 22:22:46.410814,18.256735358965365,-43.22139950180025,2.0597646236419678,16.854490280151367,20.61008071899414,9.055376862917342,107.29742925677878,32.66723751704023
2020-04-09 22:22:49.540704,18.109911905019477,-43.100710059166126,1.8725149631500244,16.83128547668457,20.713586807250977,338.5042984366081,144.65530601651443,52.068574269569034
2020-04-09 22:22:52.670854,17.962996243519797,-42.980242597680025,1.7124511003494263,16.759740829467773,20.71451759338379,302.8066152678599,188.44869310753933,46.29055183553465
2020-04-09 22:22:55.800372,17.815991789560904,-42.859997117341955,1.419419527053833,16.95037269592285,20.60494613647461,297.5624335891646,296.32028855651686,330.79042280687366
2020-04-09 22:22:58.930761,17.668898543142802,-42.7399736181519,1.158817172050476,17.10890769958496,20.364686965942383,332.159634971293,347.69928778125507,316.1379629049984
2020-04-09 22:23:02.060454,17.472638179984365,-42.58027696516783,1.0386855602264404,16.910205841064453,20.46978187561035,4.715448197308206,24.12953691301743,332.3777963360251
2020-04-09 22:23:05.194933,17.325341735438453,-42.46075889997637,1.6907129287719727,16.94186782836914,20.424182891845703,18.143620596120783,71.09739250476535,6.5170045060001565
2020-04-09 22:23:08.320174,17.177959913527918,-42.34145257064917,1.4369546175003052,16.894426345825195,20.292205810546875,2.7371464431336,116.93619904368994,39.484268327616945
2020-04-09 22:23:11.450104,17.03049271425276,-42.22235456209166,0.9539297819137573,17.01765251159668,20.51931381225586,329.7700608467655,153.1567741745376,54.406442154532265
2020-04-09 22:23:14.580563,16.88294355270756,-42.103468289398414,0.6205515265464783,17.246850967407227,20.27840232849121,295.7281931177468,208.2841225327683,35.093699785727686
2020-04-09 22:23:17.710890,16.735309013797732,-41.98478692238027,0.08105091005563736,17.405975341796875,20.185195922851562,304.7443331052034,313.1753342015595,321.9518574925537
2020-04-09 22:23:20.841468,16.58759422016516,-41.86631046103723,-0.22479161620140076,17.297504425048828,20.156436920166016,340.72638607740316,355.74894191388967,318.43678942866586
2020-04-09 22:23:23.970552,16.439797464262547,-41.74803549027471,-0.4290112555027008,17.14286994934082,20.0350284576416,9.96648140951473,34.13457047152865,339.4957926021892
2020-04-09 22:23:27.100960,16.24261161047157,-41.590647441230104,-0.6253244280815125,17.223159790039062,20.24704933166504,16.591565975167523,83.54239332350045,16.2197134012791
2020-04-09 22:23:30.212947,16.094630439461366,-41.47283692333114,-0.8505783081054688,17.26622772216797,20.261178970336914,355.07871978318525,126.57789898175504,45.22106373982113
2020-04-09 22:23:33.364660,15.946570721275707,-41.35522106582352,-0.9742882251739502,17.40301513671875,20.208425521850586,319.94966266944533,163.04744816822802,54.88470907568948
2020-04-09 22:23:36.490531,15.798432455914593,-41.23779986870724,-1.0327153205871582,17.425689697265625,19.917264938354492,291.2301242285107,238.88215424075315,13.017058190027633
2020-04-09 22:23:39.619861,15.6502207660199,-41.12056991688773,-1.2687432765960693,17.429174423217773,19.854944229125977,314.48112976708256,328.9679780721525,316.6780498683334
2020-04-09 22:23:42.754441,15.501930528949755,-41.003527795270394,-1.38878333568573,17.353134155273438,20.19196891784668,349.9207564361566,6.205973059123409,322.6202905405824
2020-04-09 22:23:45.882542,15.353568574893323,-40.88667350385523,-1.4027949571609497,17.186506271362305,20.35402488708496,14.904121636938974,47.341574514827045,349.2471204915276
2020-04-09 22:23:49.010873,15.155636522935524,-40.73115692664321,-1.3888638019561768,17.115365982055664,20.532474517822266,13.038596337801623,96.6385502267587,26.395974679640666
2020-04-09 22:23:52.147050,15.007102106602549,-40.61472952205117,-1.4796594381332397,17.02115821838379,20.457073211669922,345.9263158142396,137.2672133347167,50.67160933900467
2020-04-09 22:23:55.273216,14.858497680830581,-40.49848653256672,-1.9469122886657715,16.81923484802246,20.383604049682617,309.7224379345917,176.17985288541152,52.59931070393029
2020-04-09 22:23:58.400861,14.709821538072328,-40.38241771290611,-2.208894968032837,16.75676727294922,20.440208435058594,292.8677235537238,275.10133601301015,346.6599797301629
2020-04-09 22:24:01.592117,14.561075385875084,-40.26652647816392,-2.3040690422058105,16.811511993408203,20.48529815673828,325.2862670528947,341.10940942567913,316.27899265098085
2020-04-09 22:24:04.723096,14.412260931786138,-40.15080941324557,-2.3846683502197266,17.014644622802734,20.554725646972656,359.3228089952689,17.21286047263939,329.10900781813496
2020-04-09 22:24:07.849982,14.263377322031847,-40.03526651815105,-2.5578465461730957,17.220245361328125,20.778614044189453,17.875265878725568,61.8431623681259,0.4652469797735868
2020-04-09 22:24:10.984535,14.114426264159501,-39.91989437778577,-2.703059196472168,17.35492706298828,20.450218200683594,6.85467582507407,110.18355984151351,36.04483777859782
2020-04-09 22:24:14.112693,13.915722400825489,-39.766320989392625,-3.0080831050872803,17.433937072753906,20.279430389404297,335.28780355455086,147.37213670229207,54.02731542917778
2020-04-09 22:24:17.240843,13.766617663696818,-39.651338169810046,-3.2288243770599365,17.39059829711914,20.403615951538086,299.67634298633766,195.14170475826154,44.070180279768564
2020-04-09 22:24:20.373539,13.61744889354468,-39.53651927476754,-3.380042791366577,17.556007385253906,20.758386611938477,299.78023699380276,304.41844428933456,326.94603717215364
2020-04-09 22:24:23.482299,13.46821609036907,-39.421857474075956,-3.670138359069824,17.705032348632812,20.332944869995117,335.0676324066555,351.12170945169356,317.61557870928226
2020-04-09 22:24:26.611929,13.31892010794364,-39.307359597924446,-3.719749689102173,17.57672691345215,20.314918518066406,6.639178661005113,27.82557083896477,335.87982727633465
2020-04-09 22:24:29.739961,13.169561800042032,-39.193018816123846,-3.965702533721924,17.263214111328125,20.688579559326172,17.645570032032623,75.14882166379596,10.762697051630626
2020-04-09 22:24:32.874058,13.020142020437895,-39.078831713579575,-3.9771952629089355,16.906673431396484,21.084068298339844,359.80456400865785,120.38988419750689,42.79602215048103
2020-04-09 22:24:36.000452,12.870662476678518,-38.96480170538621,-4.295456409454346,16.92254638671875,21.144725799560547,326.0172748790045,156.71388205276688,55.64057196018894
2020-04-09 22:24:39.130415,12.67126364159646,-38.81299733598809,-4.412788391113281,17.138181686401367,21.032684326171875,293.28285562128804,218.50267292737598,28.534397625744937
2020-04-09 22:24:42.262863,12.521644932732745,-38.6993156674424,-4.634543418884277,17.165590286254883,20.96695327758789,308.2557675084528,320.525311012694,319.00876313014106
2020-04-09 22:24:45.392796,12.371969874808377,-38.58578426305845,-4.713074207305908,17.216941833496094,20.992151260375977,344.2779153986278,0.2808214934973553,319.90163960939094
2020-04-09 22:24:48.500270,12.222236760276065,-38.47239629264707,-5.499348163604736,17.283357620239258,21.267202377319336,12.040504209482243,39.294033898853755,342.7066030593097
2020-04-09 22:24:51.629795,12.072447296683102,-38.35915517130284,-5.597303867340088,17.113237380981445,21.235830307006836,15.760903981519958,88.68053973042593,19.769729835602618
2020-04-09 22:24:54.761747,11.922603191576776,-38.24605065374202,-5.731016159057617,17.06522560119629,21.184833526611328,351.951582558492,130.72199331725523,47.29987620994412
2020-04-09 22:24:57.872539,11.77270444495709,-38.13308957015376,-5.749406814575195,17.015708923339844,21.08139991760254,316.6819669818224,167.30575692702914,54.491607783293155
2020-04-09 22:25:01.002971,11.5727549258732,-37.98268880463008,-5.919125080108643,17.249324798583984,20.887481689453125,291.3529515203551,249.9541231117756,5.2345122652647325
2020-04-09 22:25:04.129549,11.422731528301162,-37.87004532483823,-6.1356425285339355,17.440555572509766,20.53897476196289,317.4928060589513,331.9297905679856,316.76078053465517
2020-04-09 22:25:07.241112,11.272656050536703,-37.75753844882978,-6.183080196380615,17.578659057617188,20.272607803344727,352.76687150386516,8.424023204345335,324.0666923803593
2020-04-09 22:25:10.374882,11.122528492579823,-37.645161346415556,-6.160022735595703,17.41635513305664,20.367265701293945,15.866777036297034,50.865193975555755,351.6045560146893
2020-04-09 22:25:13.502052,10.97235141575146,-37.53291060250098,-6.438192367553711,17.057140350341797,20.54395294189453,11.560429849515911,100.30130064088057,28.845009015987728
2020-04-09 22:25:16.631181,10.822123966277967,-37.420793047275225,-6.588532447814941,17.048627853393555,20.73705291748047,343.66877693033126,139.33684261550061,51.60876593464378
2020-04-09 22:25:19.764520,10.67184785170664,-37.30879843545453,-6.838760852813721,17.128786087036133,20.872135162353516,307.5647094587984,179.19238978111568,51.35687880333746
2020-04-09 22:25:22.890598,10.521523925811122,-37.19693018213347,-6.970636367797852,17.087675094604492,20.82370376586914,293.5718409250712,282.1282892726326,340.9436902533944
2020-04-09 22:25:26.003032,10.321017746309874,-37.04796034124091,-7.34882926940918,16.89775276184082,21.13578987121582,326.06863790156297,342.03540378466715,315.75372719814476
2020-04-09 22:25:29.129443,10.17058368361399,-36.936372125675824,-7.423605918884277,16.850500106811523,21.308277130126953,359.77187234873224,18.128491727109207,329.03999900185573
2020-04-09 22:25:32.264322,10.020104370914853,-36.82490343842122,-7.363948822021484,16.868654251098633,21.301923751831055,17.474048614047973,63.00274407408648,1.1817363850288631
2020-04-09 22:25:35.390398,9.869579808212466,-36.7135508643825,-7.427969932556152,16.76689338684082,21.265186309814453,6.323990617131589,110.38705166745571,36.02617087159617
2020-04-09 22:25:38.520877,9.71901170305412,-36.602310988465085,-7.528170585632324,16.764535903930664,21.267900466918945,334.8143502092112,147.41844538486475,54.14134543737114
2020-04-09 22:25:41.654057,9.56839920166617,-36.49118381066898,-7.753993034362793,16.823266983032227,21.49966049194336,299.57343935630223,194.75278012654266,44.12350698171344
2020-04-09 22:25:44.780107,9.417744865369551,-36.38016933099418,-7.892488956451416,16.821165084838867,21.697614669799805,300.01609025603244,305.13147847264344,325.7751310125492
2020-04-09 22:25:47.891752,9.267048694164268,-36.269260719251506,-8.119885444641113,16.74528694152832,21.793516159057617,335.44121301840397,351.37265230934713,316.69026907675857
2020-04-09 22:25:51.020102,9.066055863684657,-36.121554463355395,-7.915669918060303,16.750221252441406,21.86554718017578,7.072339012883567,28.20677564937423,335.4626068784317
2020-04-09 22:25:54.154854,8.915264069830991,-36.01089173842285,-8.077323913574219,16.605722427368164,21.83005714416504,17.936887845417424,76.17669000180202,10.74124940386314
2020-04-09 22:25:57.282699,8.7644330023896,-35.90033488142244,-8.159219741821289,16.436405181884766,21.76943588256836,359.5563098976598,121.51243944797683,42.30692937948934
2020-04-09 22:26:00.416933,8.613563515134128,-35.78988047725958,-8.623879432678223,16.500469207763672,21.488018035888672,325.7077819322383,157.770840166448,54.57718322340424
2020-04-09 22:26:03.544608,8.462655608064573,-35.679521695745095,-9.080690383911133,16.58942222595215,21.492473602294922,293.56350809428386,220.10153824980594,27.051268151253566
2020-04-09 22:26:06.673151,8.31171098872823,-35.56926536706817,-9.222166061401367,16.577442169189453,21.565773010253906,308.96789327660207,320.14834262711724,319.37761042079467
2020-04-09 22:26:09.800806,8.1607296571251,-35.45910124594503,-9.486397743225098,16.599184036254883,21.66486167907715,345.1790359162059,359.4522938539241,319.9406843857813
2020-04-09 22:26:12.933464,8.009711613255178,-35.34902933237569,-9.586339950561523,16.680133819580078,21.957372665405273,13.371073724898565,39.3239979387426,342.8658608726396
2020-04-09 22:26:16.060267,7.808301287462549,-35.2024124916522,-9.594379425048828,16.76572608947754,22.254470825195312,16.508247912577122,89.4463542005461,20.262949748400285
2020-04-09 22:26:19.190258,7.657202988869881,-35.09255572904171,-9.796204566955566,16.871030807495117,22.338756561279297,352.1753779755157,131.12367674234366,47.1998651650222
2020-04-09 22:26:22.321761,7.5060713931050085,-34.98278434379585,-10.015515327453613,16.97541046142578,22.15656089782715,316.44088862487763,168.22227269099648,53.8047810358296
2020-04-09 22:26:25.450876,7.354907353941579,-34.8731017510092,-10.22875690460205,17.12819480895996,22.27631187438965,291.6806776571106,251.72934391857527,3.2278626647136357
2020-04-09 22:26:28.580876,7.203710871379592,-34.76350112049259,-10.50457763671875,16.9188175201416,22.106430053710938,318.0911579510011,332.37504206224224,316.03441382208644
2020-04-09 22:26:31.712537,7.052484079853163,-34.65398245224603,-10.567008018493652,16.90170669555664,21.932626724243164,353.4139644796058,9.263087184445661,323.82736938203124
2020-04-09 22:26:34.840530,6.901226125588646,-34.54454574626949,-10.605924606323242,16.953359603881836,21.980838775634766,16.34985241062994,52.12050761292323,352.11205614549414
2020-04-09 22:26:37.970990,6.749938289246509,-34.43518758746842,-10.83597469329834,16.748470306396484,22.286081314086914,11.323598162687597,101.35945403766645,28.87705626357343
2020-04-09 22:26:41.086729,6.548175781824802,-34.289499652472045,-10.88828182220459,16.576139450073242,22.601469039916992,342.80956645350034,140.14962146635378,51.05627193268145
2020-04-09 22:26:44.215511,6.396821351138258,-34.18031907858939,-11.016179084777832,16.496286392211914,22.518253326416016,306.3694126936678,181.61835367336482,49.412839625917165
2020-04-09 22:26:47.360342,6.2454391728082115,-34.07121022169302,-11.364519119262695,16.458349227905273,22.736351013183594,294.7639138409136,286.4739288301615,336.46265414840104
2020-04-09 22:26:50.494642,6.0940301006083075,-33.962176496877525,-11.35070514678955,16.54342269897461,22.487634658813477,327.9260736954021,343.8436007447796,314.3381295115246
2020-04-09 22:26:53.622421,5.942594988312193,-33.85321107395373,-11.508018493652344,16.500152587890625,22.270835876464844,1.3191302292170182,20.082636169406534,328.5885269128125
2020-04-09 22:26:56.750665,5.791134689693513,-33.74431053782705,-12.405478477478027,16.430126190185547,22.43086051940918,17.85363466962414,65.36872160257889,1.036986106939487
2020-04-09 22:26:59.882677,5.639649631639093,-33.63548171868665,-12.53869342803955,16.56220817565918,22.664714813232422,5.181495056266624,112.49439042264726,35.854408689443275
2020-04-09 22:27:03.010889,5.437632699670803,-33.490469972418104,-12.610952377319336,16.546953201293945,22.585969924926758,333.2128484337617,149.57526886059304,53.00130148753139
2020-04-09 22:27:06.140737,5.2860925732162,-33.38178800234486,-12.488362312316895,16.57071876525879,22.56343650817871,298.24058258128764,199.18032731259837,40.08307784234113
2020-04-09 22:27:09.256594,5.134530248646794,-33.27316408887957,-12.701388359069824,16.34206771850586,22.59149932861328,301.85769367137544,307.6680502209407,323.9709262980066
2020-04-09 22:27:12.458347,4.982946152849408,-33.164598232022215,-12.857559204101562,16.522554397583008,22.351716995239258,338.3286208485135,353.52321591670113,316.76941389376606
2020-04-09 22:27:15.576933,4.831341566484513,-33.05609043177281,-12.957411766052246,16.669588088989258,22.570716857910156,8.608547594962399,31.225493866277255,336.1706584387411
2020-04-09 22:27:18.702667,4.679716062665284,-32.947637273036754,-13.065241813659668,16.40608787536621,23.015575408935547,17.275237175234533,79.78471694029373,12.089074538443851
2020-04-09 22:27:21.830743,4.528071348939014,-32.83923875581407,-13.263773918151855,16.25013542175293,23.087814331054688,357.4438332927476,123.61320073099765,42.5253246782005
2020-04-09 22:27:24.960705,4.376407852192528,-32.73088804991557,-13.593938827514648,16.411855697631836,22.981616973876953,322.85888612376385,159.50901402718955,53.45329950114074
2020-04-09 22:27:28.092958,4.174161255113396,-32.58650468105068,-13.73620319366455,16.50249481201172,23.102338790893555,291.6782256191986,227.54572044506781,19.78608301602292
2020-04-09 22:27:31.220721,4.022455923458242,-32.47827008836806,-13.918825149536133,16.391746520996094,23.146272659301758,310.96464443894195,325.0056555610339,315.6284410381992
2020-04-09 22:27:34.333017,3.8707343701038104,-32.37008330700965,-14.134293556213379,16.34368324279785,23.184267044067383,346.6906481333099,3.232511675660887,319.1058542691928
2020-04-09 22:27:37.460984,3.7189965950500996,-32.26193750678625,-14.290812492370605,16.294445037841797,23.0762939453125,12.619437019948048,43.62048403990951,344.1431865021547
2020-04-09 22:27:40.594246,3.5672436655141677,-32.15383610279246,-14.551454544067383,16.150367736816406,23.346572875976562,13.564829969952548,92.51343015677281,21.300808945614772
2020-04-09 22:27:43.720959,3.4154762218262498,-32.04577909502827,-14.618770599365234,15.978363990783691,23.705385208129883,347.9566347950292,132.82132026055035,47.021583567306536
2020-04-09 22:27:46.833461,3.2636946908731685,-31.93775623820994,-14.768156051635742,16.074674606323242,24.025222778320312,312.25873306022754,169.60306373360623,52.56738298465507
2020-04-09 22:27:49.960196,3.1119001398719823,-31.82977436252662,-15.182897567749023,15.534366607666016,23.933876037597656,290.1713219637537,263.92619030438544,352.2046402134673
2020-04-09 22:27:53.094813,2.9094879107054776,-31.6858520314307,-15.299192428588867,15.676918983459473,23.802406311035156,320.35838801956805,337.5867957103057,312.961665393754
2020-04-09 22:27:56.220040,2.757665185173965,-31.577948702922836,-15.298392295837402,15.73754596710205,23.785472869873047,355.29973702076404,13.170480460485399,323.5562620984005
2020-04-09 22:27:59.333577,2.6058315740284623,-31.47007611026624,-15.283219337463379,15.910806655883789,23.960468292236328,15.863481470022503,56.166824375360086,353.2933971266031
2020-04-09 22:28:02.460541,2.4539875041557933,-31.362237668555494,-15.504659652709961,15.945303916931152,23.983917236328125,8.833277040355098,103.91707984408026,29.20340953230581
2020-04-09 22:28:05.590414,2.3021338293296036,-31.25442313250684,-14.98924732208252,16.0281925201416,23.846694946289062,339.5661367204512,141.80095630198775,50.46358568254817
2020-04-09 22:28:08.721038,2.15027140332354,-31.146639332309455,-15.205354690551758,16.144033432006836,23.875967025756836,303.78934630073593,183.99232252318615,47.3984597453295
2020-04-09 22:28:11.926984,1.9984006530244256,-31.038879437774163,-15.524640083312988,16.229196548461914,24.0930118560791,295.7575970821237,294.92381539957273,329.8041537360076
2020-04-09 22:28:15.050412,1.7958947222002448,-30.895233729339626,-15.687487602233887,16.12062644958496,24.286540985107422,330.1471760814094,347.19849489621515,313.9636985412245
2020-04-09 22:28:18.180667,1.6440074300367342,-30.78752506122311,-15.76580810546875,15.282269477844238,23.990060806274414,2.6607674258531095,23.14194278545236,329.9935617118812
2020-04-09 22:28:21.330523,1.4921140547359941,-30.67983346857952,-16.28255844116211,15.417121887207031,23.916723251342773,16.743892854037146,69.73892935055234,3.447151864432419
2020-04-09 22:28:24.460626,1.3402154500716708,-30.572162366503438,-16.542156219482422,15.642997741699219,23.9610652923584,2.415681028526011,115.76423420476414,37.00792860251546
2020-04-09 22:28:27.593557,1.1883121496522928,-30.46450833990028,-16.644651412963867,15.826736450195312,24.141008377075195,329.5940195510976,151.82480532411506,52.68824318201844
2020-04-09 22:28:30.720631,1.0364049005298013,-30.35686455858088,-16.85822296142578,15.808714866638184,24.338804244995117,295.2891485578984,205.0916101524343,35.132136675281934
2020-04-09 22:28:33.850467,0.8844943430344303,-30.24923443763982,-16.943220138549805,15.566712379455566,24.39800453186035,303.49468169465786,314.57838141557977,318.52310935939647
2020-04-09 22:28:36.984067,0.7325811708572677,-30.1416179770771,-17.026395797729492,15.313767433166504,24.571989059448242,339.4651814018765,356.2416128502328,315.31256186455903
2020-04-09 22:28:40.110546,0.5300273219871909,-29.998139608277228,-17.250755310058594,15.142751693725586,24.793588638305664,8.914940489619063,34.039702559051754,336.51886489772295
2020-04-09 22:28:43.222535,0.37811062799373757,-29.89054022318743,-17.557449340820312,15.178186416625977,24.77529525756836,16.333519720777147,81.6382458659276,12.388654319403427
2020-04-09 22:28:46.350764,0.22619353379388754,-29.78294425319222,-17.679901123046875,15.288474082946777,24.517091751098633,355.43180299723446,125.41612478507089,42.259333206258106
2020-04-09 22:28:49.483615,0.07427670639830194,-29.67535511338618,-17.849523544311523,15.408719062805176,24.75496482849121,320.75591868964113,161.43537325994325,52.745695318222005
2020-04-09 22:28:52.611115,-0.07763916050193162,-29.567765973580137,-18.04913330078125,15.404303550720215,25.040435791015625,291.5838528954365,234.55572117517033,14.296046116832017
2020-04-09 22:28:55.740678,-0.229553399896152,-29.460176833774096,-18.08412742614746,15.351739883422852,25.199121475219727,312.883504123987,326.77835944312443,315.27579495625685
2020-04-09 22:28:58.874144,-0.38146531809327167,-29.352587693968058,-18.131317138671875,15.371892929077148,25.15334701538086,348.55762997028773,4.680330779690585,319.90332666611596
2020-04-09 22:29:02.000838,-0.5840098821749454,-29.209126400641107,-18.29340171813965,15.209178924560547,24.946317672729492,14.138477067774408,45.35479201358081,345.44220310492653
2020-04-09 22:29:05.136744,-0.7359138229245579,-29.101527015551312,-18.36868667602539,15.102076530456543,24.909481048583984,13.758274587625648,94.71997057946963,22.697736310138705
2020-04-09 22:29:08.264214,-0.8878132813625276,-28.993917385177763,-18.47716522216797,14.936246871948242,24.91864013671875,347.4128381852012,135.34558059286863,47.67784863332887
2020-04-09 22:29:11.390542,-1.039707510436914,-28.886300924615043,-18.351356506347656,14.885729789733887,24.975635528564453,311.35943278806326,173.71496055735898,51.25324434306086
2020-04-09 22:29:14.520456,-1.1915958698174822,-28.778674218768565,-17.946308135986328,15.23902702331543,25.2560977935791,291.5425507415255,269.4883138738503,348.2309838571947
2020-04-09 22:29:17.651986,-1.3434777191739982,-28.671037267638333,-18.32573127746582,15.301935195922852,25.807209014892578,322.32433161365657,338.4971865021348,313.9082476504477
2020-04-09 22:29:20.788003,-1.4953523114545206,-28.563381533487885,-18.750255584716797,15.242714881896973,26.017131805419922,356.8068193283444,14.496383249151307,325.31555148896115
2020-04-09 22:29:23.923842,-1.6472190063288155,-28.455713846506388,-19.521860122680664,15.21657943725586,25.791105270385742,17.065572565829942,58.15598719753207,355.7939357850471
2020-04-09 22:29:27.051535,-1.8496946281885542,-28.31212790222709,-19.536714553833008,15.017614364624023,25.833208084106445,8.77933647515857,105.93626817784362,32.0514447369448
2020-04-09 22:29:30.180416,-2.001540405608516,-28.20441581901599,-19.465503692626953,14.861502647399902,25.675472259521484,339.0856568180029,142.96495714034134,52.172543409114965
2020-04-09 22:29:33.313300,-2.1533759377447224,-28.096681537690085,-19.74627685546875,14.848233222961426,25.695068359375,303.22799012832553,185.7783486892528,48.23261708828481
2020-04-09 22:29:36.442413,-2.3052005842669394,-27.98892505824938,-19.774669647216797,14.759745597839355,25.71648597717285,295.98972789125577,295.00756034898626,331.22990449882894
2020-04-09 22:29:39.570519,-2.4570139182883435,-27.881144673146576,-19.80717658996582,14.73410415649414,25.617982864379883,330.74186699206405,346.9128905360711,314.9707860286808
2020-04-09 22:29:42.702268,-2.6088150860352886,-27.773336967287097,-20.0671329498291,14.782432556152344,25.78725814819336,3.5044084864709895,22.96244199896984,331.08386480909036
2020-04-09 22:29:45.833310,-2.7606034471775396,-27.665501940670936,-20.22255516052246,14.6731595993042,25.9866943359375,17.995642840205164,69.44385834821863,5.057631283215736
2020-04-09 22:29:48.966807,-2.9123781479414506,-27.55763617820351,-20.192461013793945,14.64491081237793,26.238719940185547,2.93378246669639,116.1202236643052,38.4873305012673
2020-04-09 22:29:52.092402,-3.114722502103078,-27.41376678107365,-20.188169479370117,14.6759672164917,26.25487518310547,330.04149939457096,152.5230965441005,53.88971785325329
2020-04-09 22:29:55.223150,-3.2664630519211397,-27.305825886525355,-20.37753677368164,14.650327682495117,26.213979721069336,296.0364805361245,206.91132281148742,35.38279437253765
2020-04-09 22:29:58.350491,-3.4181880203701565,-27.197849133483917,-20.554553985595703,14.516764640808105,26.427417755126953,304.9270065145554,313.6733198788506,320.80716901407834
2020-04-09 22:30:01.604065,-3.5698965536764833,-27.089834814402042,-20.69155502319336,14.560619354248047,26.764467239379883,341.73579070653534,356.74741397148165,317.5788015556964
2020-04-09 22:30:04.796712,-3.7215877980664733,-26.98178122173244,-20.825475692749023,14.359619140625,26.558528900146484,10.937348403802437,36.24955562349602,339.6056049685701
2020-04-09 22:30:07.922414,-3.873261540096715,-26.87368835547511,-21.031635284423828,14.269448280334473,26.578767776489258,16.301506624137296,85.54286693893796,16.215015938677425
2020-04-09 22:30:11.052766,-4.075463740946242,-26.729497939454266,-21.062808990478516,14.392388343811035,26.744409561157227,353.6321023655626,128.70704653096644,44.46258147777497
2020-04-09 22:30:14.184440,-4.227093086746879,-26.621304327906678,-21.196958541870117,14.599411964416504,26.70661735534668,318.35734408333485,165.53785808301973,52.49566941346452
2020-04-09 22:30:17.311008,-4.378702795753652,-26.5130629050349,-21.32326889038086,14.565512657165527,27.0988712310791,291.38863925876836,245.30693070239062,6.194237086582033
2020-04-09 22:30:20.440240,-4.530291160419268,-26.404773670838935,-21.551477432250977,14.386934280395508,27.021163940429688,316.15293809475367,329.9748025973258,313.8830988939238
2020-04-09 22:30:23.574346,-4.681858180743729,-26.296434917771485,-21.365278244018555,14.278948783874512,27.016708374023438,351.9567658182984,6.969104545560232,320.00216974868977
2020-04-09 22:30:26.700600,-4.83340342984021,-26.18804493828526,-21.48794174194336,14.066218376159668,27.209218978881836,16.12479084728885,48.83636141468433,346.8563741357838
2020-04-09 22:30:29.830808,-4.984925627048242,-26.079602024832965,-21.59416961669922,13.845654487609863,27.062999725341797,13.211725411562167,98.65702822084837,24.030902151213276
2020-04-09 22:30:32.963493,-5.136424345481003,-25.971104469867313,-21.498802185058594,13.743940353393555,27.293405532836914,345.64896829902847,138.6850103422496,47.33008955173767
2020-04-09 22:30:36.092942,-5.33838492838864,-25.826352270787233,-21.595369338989258,13.72266674041748,27.495031356811523,309.5192193162163,178.2951078298511,48.07860656778478
2020-04-09 22:30:39.220715,-5.489826017100278,-25.717719819585472,-21.67375373840332,13.720552444458008,27.627391815185547,293.79551596001085,276.4398140337117,341.97543130865984
2020-04-09 22:30:42.336830,-5.641241492602529,-25.609027604228476,-21.797788619995117,13.784214973449707,27.808610916137695,325.42649083655505,339.56639456009236,313.27989415246867
2020-04-09 22:30:45.464836,-5.792630074234923,-25.50027050207436,-21.807327270507812,13.90800666809082,27.714080810546875,359.89774817278266,16.01634964138385,325.0222563358116
2020-04-09 22:30:48.590886,-5.94399176199746,-25.39145192821772,-21.809152603149414,14.059019088745117,28.10655403137207,18.719243326160072,61.15872277177726,356.2491089828469
2020-04-09 22:30:51.720794,-6.095325702116494,-25.282566760016667,-21.935094833374023,13.983929634094238,28.350269317626953,8.384420059990308,109.7003034671676,31.707469580153788
2020-04-09 22:30:54.832943,-6.246631040818379,-25.173613289923917,-21.874786376953125,13.947741508483887,28.381105422973633,337.0532452380064,146.9595249745316,49.972816100115246
2020-04-09 22:30:57.964558,-6.397906924329467,-25.064591517939466,-22.098026275634766,13.985118865966797,28.2790470123291,301.6814406398433,193.30794923027486,41.00056349317061
2020-04-09 22:31:01.096216,-6.599561856271746,-24.91911702635466,-22.230892181396484,13.896797180175781,28.378917694091797,299.8428971492484,300.46989485467725,325.9426414019438
2020-04-09 22:31:04.243685,-6.7507668765701965,-24.809926207188248,-23.045732498168945,13.884316444396973,28.560455322265625,335.0926838329838,349.3004830519656,314.3548224938561
2020-04-09 22:31:07.370482,-6.901939880356911,-24.70066025594097,-22.948394775390625,13.840540885925293,28.596721649169922,6.671297625577098,26.259893405711917,331.5142145381253
2020-04-09 22:31:10.500554,-7.053081294518716,-24.59131746506553,-22.254119873046875,13.704310417175293,28.93345069885254,19.187425473007764,73.80962647323156,6.395045928840878
2020-04-09 22:31:13.634450,-7.204188984621493,-24.481897834561924,-23.09342384338379,13.71885871887207,29.24871063232422,1.851494809921676,120.12193587636729,39.16354313476066
2020-04-09 22:31:16.762883,-7.355263377552066,-24.372394534240986,-23.048614501953125,13.569987297058105,29.395084381103516,328.08975917886147,156.40650987973797,52.184581617527115
2020-04-09 22:31:19.890410,-7.506303619536789,-24.2628109791973,-23.691383361816406,13.650296211242676,29.44022560119629,295.60707337319496,215.04557267897403,28.248086341021757
2020-04-09 22:31:23.024498,-7.707635398153963,-24.11656979887816,-22.92644500732422,13.545431137084961,29.282798767089844,307.8031718532911,315.37642413329866,319.9788002564446
2020-04-09 22:31:26.151383,-7.858591970321354,-24.00678646080125,-23.07183837890625,13.272473335266113,29.11477279663086,343.9101131269172,356.8638146956472,317.28819408198524
2020-04-09 22:31:29.280911,-8.009511830221955,-23.896916037812428,-23.353103637695312,12.969693183898926,29.032127380371094,12.636417723998347,36.168498353520896,338.949288676129
2020-04-09 22:31:32.413745,-8.160394124082123,-23.78695682236439,-23.420072555541992,12.925423622131348,28.940385818481445,17.85130899021175,86.34969669502406,15.897471906427072
2020-04-09 22:31:35.540635,-8.311237998128208,-23.67690369181527,-23.429964065551758,12.956201553344727,28.928598403930664,354.92878773939333,129.25184973992333,44.25018650024967
2020-04-09 22:31:38.670583,-8.462043452360211,-23.566760061259643,-23.413991928100586,13.045716285705566,29.199016571044922,319.21629159788273,166.0329648355756,52.07860098727061
2020-04-09 22:31:41.804812,-8.612808779230841,-23.456519100508345,-23.742229461669922,13.234787940979004,29.169828414916992,292.00391635958147,244.29326232766903,7.206756281975771
2020-04-09 22:31:44.932303,-8.763533978740098,-23.346182517108666,-23.828001022338867,13.294337272644043,29.48528289794922,316.1893737388811,328.92713354091586,315.0676278658278
2020-04-09 22:31:48.060734,-8.964437162986853,-23.198911685772142,-23.911462783813477,13.083023071289062,29.56659698486328,351.87839025134616,6.440014186788949,321.0397096345606
2020-04-09 22:31:51.194472,-9.115065032300436,-23.08834116839339,-23.82708168029785,13.074456214904785,29.55898666381836,16.595694824520795,48.13478828880272,348.02042022414065
2020-04-09 22:31:54.321810,-9.265650212931707,-22.977668198177092,-23.885377883911133,13.043527603149414,29.92385482788086,13.928836364031914,98.42579899668677,25.098962737390263
2020-04-09 22:31:57.433089,-9.416191851107019,-22.866889360028654,-23.972482681274414,13.03349781036377,29.788265228271484,346.17694106809677,138.36233854547987,48.51647292000138
2020-04-09 22:32:00.543145,-9.566689093052727,-22.756004653948082,-23.9489688873291,12.784186363220215,29.8757266998291,310.5488839939741,178.50258165607943,48.863784624201934
2020-04-09 22:32:03.672067,-9.717141084995182,-22.64501237238808,-24.12195587158203,12.662435531616211,29.887290954589844,294.2418961430278,274.50484876260373,344.70229041968634
2020-04-09 22:32:06.804497,-9.86754697316074,-22.53390910025407,-24.178668975830078,12.62560749053955,29.838951110839844,325.62094632222534,339.03471385207837,314.5006880137709
2020-04-09 22:32:09.930227,-10.017907611323048,-22.422693129998752,-24.349369049072266,12.552135467529297,29.81053924560547,359.57139650487585,15.402901323721032,325.8866236054659
2020-04-09 22:32:13.060490,-10.218313045534039,-22.27422872310477,-24.49610137939453,12.53028678894043,29.845727920532227,18.63508685784905,60.8069475389541,357.0411804076839
2020-04-09 22:32:16.171787,-10.368561839348686,-22.162744667924528,-24.23894500732422,12.470109939575195,30.0346736907959,8.337425797179682,109.08458923424763,32.27657118708301
2020-04-09 22:32:19.302958,-10.518761114291852,-22.051142791981107,-24.234554290771484,12.565133094787598,30.367416381835938,337.1793151621592,146.66920095367104,50.957681567106896
2020-04-09 22:32:22.430971,-10.668910870363534,-21.939421387727208,-24.17843246459961,12.740407943725586,30.855117797851562,301.5252342135251,192.96340716778272,42.13958974482403
2020-04-09 22:32:25.561671,-10.819010253790088,-21.82757704006825,-24.34288787841797,12.842070579528809,30.773420333862305,299.45648602714414,299.93861542027696,326.76026627201304
2020-04-09 22:32:28.694242,-10.969057557024222,-21.71560974900423,-24.280561447143555,12.867864608764648,30.60633087158203,334.53374896263415,349.0675181059812,314.3324023979055
2020-04-09 22:32:31.820164,-11.11905363383958,-21.603517806987856,-24.402423858642578,12.829049110412598,30.560546875,6.307378743296471,25.931540599100014,331.1699900794296
2020-04-09 22:32:34.950678,-11.26899677668887,-21.49129779892455,-24.584163665771484,12.638676643371582,30.60402488708496,18.359917319209455,73.6331412152676,5.583537493173323
2020-04-09 22:32:38.083803,-11.468837012746041,-21.341469061743854,-24.930553436279297,12.519180297851562,30.590869903564453,1.4604952947990069,119.11800735140214,37.98318740843949
2020-04-09 22:32:41.230190,-11.618653797095686,-21.22894340271519,-25.105411529541016,12.547411918640137,30.761688232421875,327.69535332033365,155.18057288599073,52.04194677708974
2020-04-09 22:32:44.363954,-11.768415086158324,-21.116286262545,-25.096012115478516,12.657711029052734,31.089906692504883,294.73330776324275,212.87118195670047,29.110559940728656
2020-04-09 22:32:47.510314,-11.918120879933955,-21.003492518591408,-25.029449462890625,12.67972183227539,31.05479621887207,306.6833759992458,317.60717416150857,317.3157163292458
2020-04-09 22:32:50.645392,-12.067768617101642,-20.890560463307125,-25.132139205932617,12.525785446166992,31.013935089111328,342.61707635476375,357.911876274491,316.57608880440347
2020-04-09 22:32:53.771328,-12.21735915143503,-20.777490096692148,-25.167802810668945,12.268796920776367,31.064167022705078,10.970153802386008,37.09327523128936,338.8185383648474
2020-04-09 22:32:56.900274,-12.366891629160474,-20.664279711199185,-25.373268127441406,12.142203330993652,31.004541397094727,15.999516640174354,85.34231892452806,15.321905525448436
2020-04-09 22:33:00.030915,-12.566175204800288,-20.513107134299293,-25.496213912963867,12.276294708251953,30.979267120361328,353.5061301984923,127.68086524968538,44.09719367793597
2020-04-09 22:33:03.159802,-12.715568517421392,-20.39955865444242,-25.572952270507812,12.296387672424316,31.067310333251953,318.32133191093595,163.69540089403043,52.76158916842062
2020-04-09 22:33:06.290965,-12.86489950456632,-20.285863325518385,-25.73394012451172,12.29397964477539,31.11899757385254,290.282619896279,242.3077809774597,8.312277894429341
2020-04-09 22:33:09.423653,-13.014169020008717,-20.172017732432614,-25.79396629333496,12.250605583190918,31.35518455505371,314.99535080403075,330.6805660442632,313.04278413543165
2020-04-09 22:33:12.550583,-13.163376209974938,-20.0580218751851,-25.923866271972656,12.23999309539795,31.493955612182617,350.64512019575125,7.50047490685383,320.0729373386803
2020-04-09 22:33:15.686331,-13.312519366917691,-19.943872338681263,-25.84947395324707,12.312986373901367,31.648412704467773,14.535738799148922,48.60249915259769,347.17076945082675
2020-04-09 22:33:18.812135,-13.461598490836975,-19.829567415373806,-25.99066925048828,12.225072860717773,31.70401382446289,11.748990028158808,97.37192812851048,24.090905363071837
2020-04-09 22:33:21.940699,-13.610612727959143,-19.71510539771544,-26.085983276367188,12.20478343963623,31.792219161987305,344.38725648195594,136.900391195152,47.60938281708866
2020-04-09 22:33:25.050220,-13.809195355435385,-19.56224064144868,-26.115819931030273,12.10785961151123,31.874561309814453,308.52767050912183,174.3283388655828,50.45202217228334
2020-04-09 22:33:28.181188,-13.95805335198029,-19.447404670933253,-25.971521377563477,11.749907493591309,31.727249145507812,291.07261323606104,276.85681074291927,340.9660335097168
2020-04-09 22:33:31.313815,-14.106844754180786,-19.332404775877748,-26.722652435302734,11.718938827514648,31.665298461914062,323.56479641976847,342.0264067179829,311.177090642886
2020-04-09 22:33:34.441106,-14.255567000715937,-19.21723754118758,-26.740755081176758,11.75706672668457,31.851478576660156,357.2538432566907,17.323647848524292,324.4252329155554
2020-04-09 22:33:37.570442,-14.40422009158574,-19.101904674410036,-26.644176483154297,11.989396095275879,32.01602554321289,15.464147630008537,61.57975612278436,355.7157582935808
2020-04-09 22:33:40.702263,-14.552802319242906,-18.986401052903243,-26.46568489074707,11.982915878295898,31.821443557739258,5.490954705860624,107.91442073507353,30.833796177755364
2020-04-09 22:33:43.830672,-14.701312829913785,-18.8707266766672,-26.596235275268555,12.066929817199707,31.67332649230957,334.8661503638766,144.50444079812718,50.56377772748309
2020-04-09 22:33:46.965771,-14.849753331145672,-18.75487983815461,-26.76314926147461,12.720209121704102,32.00007247924805,298.734261824307,189.27200411009267,44.4355373437563
2020-04-09 22:33:50.111945,-15.047559024603826,-18.600141902507975,-26.753787994384766,12.372196197509766,32.29038619995117,297.32966074225055,304.84962730144827,322.08324301142807
2020-04-09 22:33:53.243969,-15.195825356011879,-18.48388013000331,-26.645376205444336,12.463055610656738,31.917377471923828,332.8563569553166,351.9991027458687,312.4819948687224
2020-04-09 22:33:56.379699,-15.344019970433644,-18.367439065032933,-26.64970588684082,12.382671356201172,32.351688385009766,4.161222742391276,28.368767245919422,331.07101039307236
2020-04-09 22:33:59.496590,-15.492136037679956,-18.250815292502256,-26.70030403137207,12.210421562194824,32.556331634521484,15.617963490117225,73.93264501037267,6.041102110956232
2020-04-09 22:34:02.644233,-15.640176972845397,-18.134008812411285,-26.94790267944336,12.068990707397461,32.48762893676758,358.7050685974038,118.60376240879188,38.495519898082144
2020-04-09 22:34:05.771199,-15.788141068382677,-18.017014502118133,-27.095624923706055,12.072041511535645,32.38810729980469,325.3452798873236,153.64279677549737,53.222657673247745
2020-04-09 22:34:08.900651,-15.9360266167445,-17.89983236162281,-27.173002243041992,12.091777801513672,32.32457733154297,291.97230624410264,213.518697550396,29.581002880191622
2020-04-09 22:34:12.123929,-16.133082696941244,-17.743292963582583,-27.315378189086914,11.978096008300781,32.380252838134766,306.91731339341334,322.7003335274658,314.43529919775176
2020-04-09 22:34:15.252959,-16.280782122648187,-17.62566173814933,-27.449892044067383,12.263607025146484,32.665679931640625,342.74159411842766,1.3682944644712989,316.84109672910535
2020-04-09 22:34:18.380335,-16.428399586085085,-17.507837559872023,-27.416545867919922,12.153762817382812,32.86279296875,10.316541411082577,39.97969609906382,340.42458733873696
2020-04-09 22:34:21.514073,-16.57593679479924,-17.38981530610879,-27.3780460357666,11.799756050109863,32.444671630859375,13.546278322393146,87.76099819265629,17.05393904612612
2020-04-09 22:34:24.642945,-16.72338862614877,-17.27159326931233,-27.147974014282227,11.947103500366211,32.3956184387207,350.52070403115124,128.7996229149768,44.57403650465124
2020-04-09 22:34:27.770751,-16.870758495228255,-17.153169741935358,-26.905372619628906,12.197603225708008,32.43218994140625,315.4217253629688,164.3081098437156,53.504621542564216
2020-04-09 22:34:30.904655,-17.01804298694312,-17.034543016430575,-26.839561462402344,11.506896018981934,32.532623291015625,288.55748486666306,248.68227358642753,2.7933761889191415
2020-04-09 22:34:34.030229,-17.214287982175925,-16.876053599382306,-26.954675674438477,11.420130729675293,32.52568817138672,315.1052485477762,333.81680449602544,311.38527822388255
2020-04-09 22:34:37.161728,-17.36137098331027,-16.75694534554104,-26.812597274780273,11.307059288024902,32.258331298828125,350.5901790078413,9.931790878720236,320.19579536637593
2020-04-09 22:34:40.293788,-17.5083668995327,-16.63762364828821,-26.764251708984375,11.364449501037598,32.60204315185547,13.682691714270288,51.38822254143865,348.42531554568626
2020-04-09 22:34:43.420410,-17.655272315748626,-16.5180919227184,-26.98952293395996,11.559611320495605,32.72610092163086,9.41363394526285,98.93495544836537,25.315360205769192
2020-04-09 22:34:46.551524,-17.802090647052637,-16.398343338642444,-27.123523712158203,11.37315845489502,32.8475227355957,342.03083780320696,136.7272595600705,48.713568273785846
2020-04-09 22:34:49.685426,-17.94881677080285,-16.278379603607632,-27.06147003173828,11.275814056396484,32.77658462524414,306.1535616404225,174.60739307431285,51.839711705954834
2020-04-09 22:34:52.811069,-18.095450686999268,-16.15819559497209,-27.172832489013672,11.356009483337402,32.918853759765625,290.72995630577987,283.4505660846229,336.5227017564892
2020-04-09 22:34:55.940611,-18.241994103189185,-16.03778960518852,-27.277193069458008,11.37500286102295,33.050209045410156,324.07672251315546,344.5375274738854,310.91933979417723
2020-04-09 22:34:59.056825,-18.437238475708583,-15.876902791741577,-27.162290573120117,11.525197982788086,33.20159149169922,357.49747823881916,19.2214688433784,325.2968675064866
2020-04-09 22:35:02.183847,-18.583561618297768,-15.755972584939208,-27.28579330444336,11.285995483398438,33.31764221191406,15.019925786769248,62.69502356140989,357.1292305107086
2020-04-09 22:35:05.310682,-18.72978913823857,-15.634815274346938,-27.36430549621582,11.211414337158203,33.514244079589844,4.720348858037689,108.81899049818252,32.14912668735974
2020-04-09 22:35:08.440235,-18.875919327983702,-15.513425737322885,-27.338462829589844,11.019110679626465,33.744102478027344,333.9150260313848,145.02588476012264,51.62548282263738
2020-04-09 22:35:11.635342,-19.02195389508045,-15.391805681414347,-27.351593017578125,10.997108459472656,33.78569412231445,297.8699355357877,191.8420540306067,43.493777200616606
2020-04-09 22:35:14.785100,-19.167887716886945,-15.26994827643215,-27.403400421142578,10.992562294006348,33.84792709350586,298.30667832188584,308.53164567921874,320.3263476021715
2020-04-09 22:35:17.913027,-19.313724208497764,-15.147855229923586,-27.34894561767578,11.015084266662598,33.9987678527832,334.2367125733668,353.42414871854515,313.74767673324993
2020-04-09 22:35:21.041082,-19.508014062080655,-14.984690548388444,-27.239381790161133,10.962528228759766,34.2601203918457,4.92907943907328,29.344739806611713,333.0837629810903
2020-04-09 22:35:24.174507,-19.653614912165107,-14.862034011273355,-27.300048828125,10.889307975769043,34.35743713378906,15.434900759982542,75.96706466598515,8.225344954220711
2020-04-09 22:35:27.301860,-19.79911160186472,-14.739133294895439,-27.242822647094727,10.977117538452148,34.5200309753418,357.5646732129869,119.6939562229743,40.255260081127986
2020-04-09 22:35:30.431046,-19.94450413117949,-14.6159866917074,-27.292278289794922,11.01664924621582,34.58657455444336,324.1098216098734,154.89849973364753,53.98703780364222
2020-04-09 22:35:33.564397,-20.089792500109414,-14.492589079067365,-27.496368408203125,10.959040641784668,34.550106048583984,291.1018464457087,217.4979111193321,26.847624353602342
2020-04-09 22:35:36.689990,-20.234976708654496,-14.368942164522624,-27.539772033691406,10.991290092468262,34.72615432739258,307.00704841872897,323.54213043700776,313.7924793591106
2020-04-09 22:35:39.819893,-20.38005163417286,-14.245039971657654,-27.631059646606445,10.656210899353027,34.99205017089844,342.82286653936166,1.8300247505959755,316.68412190650554
2020-04-09 22:35:42.954835,-20.52502069175909,-14.120881646698809,-27.847368240356445,10.339494705200195,35.078125,10.144503460041943,40.564329556165646,340.4315882826362
2020-04-09 22:35:46.080909,-20.718142582993906,-13.954936224397825,-27.993331909179688,10.333093643188477,34.74882888793945,13.212738840880267,88.4790628102889,17.131087740348708
2020-04-09 22:35:49.210892,-20.86285550848626,-13.830172573923788,-27.912147521972656,10.2801513671875,34.20846176147461,349.6540580396351,129.1043996161211,45.06198863405153
2020-04-09 22:35:52.344456,-21.007455735857306,-13.705145107393058,-27.76604652404785,10.36118221282959,34.162784576416016,314.4458313494519,165.27183587522606,53.31734117061705
2020-04-09 22:35:55.470672,-21.15194497265434,-13.579851263484697,-27.794429779052734,10.347574234008789,34.37086868286133,288.7781068070436,252.91227121111893,359.5778836371226
2020-04-09 22:35:58.623547,-21.29632151133007,-13.454289334651415,-27.783477783203125,10.232892990112305,34.7375602722168,316.774895120575,335.4455314055067,311.5595436703663
2020-04-09 22:36:01.750455,-21.440583644337202,-13.32845675957227,-27.863147735595703,10.373514175415039,35.056602478027344,351.55558697343486,10.855910350781082,321.4894844215951
2020-04-09 22:36:04.880215,-21.584729664128446,-13.202351830699971,-27.782649993896484,10.631590843200684,34.96432876586914,13.86641270388623,52.43801920177503,350.0136162730175
2020-04-09 22:36:08.014900,-21.776743357170428,-13.033782761984055,-27.603464126586914,10.463497161865234,34.91905975341797,9.286121143647883,100.19290553875247,26.39367973607954
2020-04-09 22:36:11.140770,-21.92061616939487,-12.907031526461545,-27.63614845275879,10.22150993347168,34.94399642944336,341.66167290875694,138.26877861422903,49.05071324140685
2020-04-09 22:36:14.270973,-22.064369453308835,-12.779999399409416,-27.626798629760742,10.434365272521973,34.72489547729492,305.6005417138941,177.63719668823882,49.74417551764907
2020-04-09 22:36:17.404346,-22.208003208912327,-12.652683819506732,-27.681610107421875,10.457940101623535,34.8494987487793,292.19103622208314,286.18558556416025,333.97238766758187
2020-04-09 22:36:20.532405,-22.35151572865805,-12.5250830792062,-27.93668556213379,10.391372680664062,35.03123474121094,325.5265701833687,344.63445981103894,311.2779520463596
2020-04-09 22:36:23.660565,-22.494905304998714,-12.397193763413235,-27.90226173400879,10.353559494018555,35.22091293334961,359.1837058428801,19.638306750687818,325.82650769548604
2020-04-09 22:36:26.794143,-22.638171937934313,-12.269014164580545,-27.984832763671875,10.212440490722656,35.37189483642578,16.14542655631875,64.44348368704145,358.13303694604235
2020-04-09 22:36:29.920635,-22.781313919917565,-12.140541721387189,-28.082345962524414,10.257997512817383,35.477447509765625,4.642180758081479,110.75821780733254,32.47220146529051
2020-04-09 22:36:33.033426,-22.971975235503884,-11.968786369423464,-28.093955993652344,10.026541709899902,35.389225006103516,333.66026339043793,147.14965012026806,50.22166038214632
2020-04-09 22:36:36.166960,-23.11482181180553,-11.839621515803,-28.114959716796875,9.650543212890625,35.45817184448242,298.00342475292643,194.74543084299575,40.0486468587351
2020-04-09 22:36:39.310886,-23.25754202960753,-11.710155280085408,-28.114337921142578,9.729631423950195,35.19359588623047,300.1104971307403,307.5356674944475,320.33734079164066
2020-04-09 22:36:42.460899,-23.400130766268013,-11.580385954723397,-28.138851165771484,9.770465850830078,35.02424621582031,335.83586817883645,352.7501494932297,313.0428456071342
2020-04-09 22:36:45.591459,-23.54258972933426,-11.450310978396027,-28.088945388793945,9.635804176330566,35.21154022216797,6.843306548313761,29.411047283074197,332.0558263411925
2020-04-09 22:36:48.723387,-23.684917211258988,-11.319927789782362,-28.096654891967773,9.535141944885254,35.460304260253906,17.27842858112422,76.5615096898297,7.2727393244526795
2020-04-09 22:36:51.850457,-23.827109796947603,-11.18923382756146,-28.14463996887207,9.640018463134766,35.383113861083984,359.0905050301692,121.27743995939336,39.12929315116763
2020-04-09 22:36:54.987266,-23.9691709014947,-11.058225676638738,-28.365928649902344,9.78948974609375,35.47520065307617,324.8831356277022,157.16468819836606,51.739994359167234
2020-04-09 22:36:58.114506,-24.158373971693223,-10.883057791410945,-28.50435447692871,9.728567123413086,35.492698669433594,292.9408680495455,220.42494770700603,23.160302333941356
2020-04-09 22:37:01.240424,-24.30011576489662,-10.751309418736922,-28.634212493896484,9.74764347076416,35.50880813598633,308.40665321740755,321.3164928053916,314.73479616266764
2020-04-09 22:37:04.370313,-24.441719246769324,-10.619239173398263,-28.75299072265625,9.92114543914795,35.647369384765625,344.58443550555774,0.6779426990657804,316.06039927678376
2020-04-09 22:37:07.486654,-24.583184417311337,-10.48684449407403,-28.767240524291992,10.037861824035645,35.7968635559082,11.861753890034779,40.189294114124,339.37250256502864
2020-04-09 22:37:10.615864,-24.72450956897536,-10.354123673216925,-28.72188949584961,9.997849464416504,35.91920852661133,14.965564311165116,89.20026248475054,16.333307984912878
2020-04-09 22:37:13.740822,-24.86569299421411,-10.22107329573237,-28.6129207611084,9.804953575134277,36.139801025390625,351.3503824775583,130.78682547285698,43.48096035063908
2020-04-09 22:37:16.870177,-25.006732985480287,-10.087690800299422,-28.74573516845703,9.695088386535645,36.119754791259766,315.7613531043531,167.5142826023896,50.42683243462434
2020-04-09 22:37:20.003114,-25.194561480108348,-9.90932724031371,-28.63228988647461,9.604971885681152,36.11157989501953,290.6615314706747,253.88208294117987,357.5736929046727
2020-04-09 22:37:23.130065,-25.335261669463318,-9.775160126899856,-28.44053840637207,9.549673080444336,36.23527526855469,317.98279699981885,333.96276051594674,311.8249955573642
2020-04-09 22:37:26.243279,-25.475816717298425,-9.640652357801148,-28.476093292236328,9.500725746154785,36.33830642700195,353.15540297281996,9.848864698233465,319.930606441661
2020-04-09 22:37:29.369849,-25.616223208519084,-9.505802225470294,-28.529661178588867,9.392379760742188,36.66889572143555,16.053558804434786,51.94037844903706,347.89447495094015
2020-04-09 22:37:32.504871,-25.756479435578004,-9.370605461039062,-28.42872428894043,9.464375495910645,36.829200744628906,11.184201685690454,100.899235891391,24.99397248456341
2020-04-09 22:37:35.632243,-25.89658369092789,-9.235061210733805,-28.4271240234375,9.592405319213867,36.96820831298828,343.0303130448333,139.77760838301987,47.34487349619616
2020-04-09 22:37:38.760133,-26.036537682116037,-9.099165205686292,-28.276939392089844,9.644548416137695,36.88174819946289,307.0966024440316,180.51363887700697,46.53853892882489
2020-04-09 22:37:41.894439,-26.176337994047856,-8.962916592122879,-28.30588150024414,9.692856788635254,36.95590591430664,294.1021094914744,283.58326983000705,335.9727776132021
2020-04-09 22:37:45.020441,-26.362496507423845,-8.780695682803401,-28.449541091918945,9.558767318725586,37.007843017578125,327.1169831467007,342.6702903585873,311.74849060847095
2020-04-09 22:37:48.133505,-26.501931404235073,-8.643611224840306,-28.4932918548584,9.531639099121094,36.79106521606445,0.755945433738883,18.511982943343327,325.1802898377328
