Date,Time,Iteration,Humidity,Temperature,Latitude,Longitude,Height,Pitch,Roll,Yaw,AccelerometerX,AccelerometerY,AccelerometerZ
2020-05-04 08:27:14.541167,1,38.3784,29.2779,-9.569573140429766,-151.74957762059654,421445.28125,3.6481248446747547,58.16847278333485,26.455178759366337,-0.0017278495943173766,0.02330808714032173,0.014621810987591743
2020-05-04 08:27:16.501719,1,38.3784,29.2779,-9.469214609633829,-151.67562033226366,421423.46875,6.855493740227179,89.139255235084,37.046618209069,-0.0034556991886347532,0.02403646521270275,0.012672236189246178
2020-05-04 08:27:18.460916,1,38.3784,29.2779,-9.368836442044028,-151.60170402506577,421401.78125,4.246044300372725,119.39886473007306,47.218497921078,-0.0017278495943173766,0.023793673142790794,0.016327690333127975
2020-05-04 08:27:20.421940,1,38.3784,29.2779,-9.26843949143401,-151.52784235938125,421380.15625,357.17005412449095,147.4674724827271,54.44426091196662,-0.0017278495943173766,0.023793673142790794,0.015109204687178135
2020-05-04 08:27:22.381675,1,38.3784,29.2779,-9.16802290403013,-151.45402167483175,421358.65625,345.53070528109697,180.75056447893635,57.622528932786565,-0.0012341781985014677,0.023793673142790794,0.011941145174205303
2020-05-04 08:27:24.341226,1,38.3784,29.2779,-9.067587533606032,-151.3802419714173,421337.21875,332.7448028906974,221.58500069601934,52.37551955577482,-0.0019746851176023483,0.02549321949481964,0.016083991155028343
2020-05-04 08:27:27.141518,2,38.2003,29.3917,-8.916899046363564,-151.26967486913313,421305.28125,327.20606930404523,280.72253388860645,33.238992652461995,-0.0029620276764035225,0.02403646521270275,0.014865507371723652
2020-05-04 08:27:29.101805,2,38.2003,29.3917,-8.816417572162567,-151.19601810912368,421284.09375,333.91984814493884,322.4377298293517,21.16963857769926,-0.0014810138382017612,0.024522049352526665,0.014865507371723652
2020-05-04 08:27:31.060992,2,38.2003,29.3917,-8.715917314941354,-151.1224023302493,421263.03125,345.43787447254005,358.1130569351728,16.955638963591298,-0.002221520757302642,0.025978805497288704,0.014621810987591743
2020-05-04 08:27:33.021864,2,38.2003,29.3917,-8.615399128473568,-151.04882753250993,421242.03125,356.9635875377218,30.401445203293555,20.083098914722804,-0.0017278495943173766,0.024279257282614708,0.015596598386764526
2020-05-04 08:27:34.981891,2,38.2003,29.3917,-8.565134058824151,-151.01205379401858,421231.59375,5.124578663026085,62.00888324795792,28.209815083554883,-0.003949370235204697,0.025250427424907684,0.015596598386764526
2020-05-04 08:27:36.941101,2,38.2003,29.3917,-8.464589405373333,-150.9385472981709,421210.75,7.601741852809377,93.79417258842025,39.234259498332385,-0.005183548666536808,0.02476484328508377,0.01364702358841896
2020-05-04 08:27:39.680732,3,38.3636,29.3917,-8.313739554911724,-150.82836268648026,421179.65625,1.6698214896745627,134.90527927821293,52.12879263238645,-0.003949370235204697,0.02549321949481964,0.015109204687178135
2020-05-04 08:27:41.641760,3,38.3636,29.3917,-8.213152212778592,-150.7549654736593,421159.0625,353.30521378075406,162.32648072019813,57.67707482349829,-0.005430384073406458,0.025250427424907684,0.013403326272964478
2020-05-04 08:27:43.600902,3,38.3636,29.3917,-8.11254694139889,-150.68160924197335,421138.5625,341.6161958017157,195.54474056080565,58.004145262093516,-0.005430384073406458,0.024279257282614708,0.014865507371723652
2020-05-04 08:27:45.560683,3,38.3636,29.3917,-8.011926302093554,-150.6082803310441,421118.1875,331.5587012677369,245.4609309776069,48.26329146784734,-0.004196206107735634,0.025007635354995728,0.014134417288005352
2020-05-04 08:27:47.521365,3,38.3636,29.3917,-7.911288587315294,-150.5350060616282,421097.875,330.8856219835253,289.35271013134934,33.42862260948364,-0.004936712794005871,0.024522049352526665,0.012184842489659786
2020-05-04 08:27:49.481533,3,38.3636,29.3917,-7.810633797064109,-150.46177277334732,421077.65625,338.71993604644183,329.46025371129747,22.72935837844857,-0.0014810138382017612,0.02355087921023369,0.01437811367213726
2020-05-04 08:27:52.226009,4,38.716,29.2969,-7.659623437157005,-150.35198431262853,421047.5625,354.27655931517046,15.249502105151716,20.58557031875125,-0.0029620276764035225,0.025978805497288704,0.015109204687178135
2020-05-04 08:27:54.187381,4,38.716,29.2969,-7.558929373318091,-150.27883298661772,421027.59375,3.9176261800768866,47.186583862181116,26.527629990987247,-0.0012341781985014677,0.02403646521270275,0.014621810987591743
2020-05-04 08:27:56.152381,4,38.716,29.2969,-7.458219941553546,-150.20573630212024,421007.75,8.895291742924229,79.59246077553622,36.60402878104134,-0.0019746851176023483,0.025978805497288704,0.014134417288005352
2020-05-04 08:27:58.111102,4,38.716,29.2969,-7.357495141863367,-150.13266693837943,420988.0,7.781361313828727,110.76825818541246,47.4412338050067,-0.002715192036703229,0.02403646521270275,0.012184842489659786
2020-05-04 08:28:00.071515,4,38.716,29.2969,-7.256755828021204,-150.05962489539533,420968.34375,1.730052659096674,139.9223674122891,55.756340251526076,-0.0034556991886347532,0.02403646521270275,0.013403326272964478
2020-05-04 08:28:02.042691,4,38.716,29.2969,-7.1560011462534066,-149.98663749392455,420948.78125,352.8826705310536,167.21435533555604,59.96932729008958,-0.0019746851176023483,0.024522049352526665,0.01657138578593731
2020-05-04 08:28:04.762360,5,38.3636,29.3158,-7.055231950333623,-149.91367741321048,420929.34375,337.46281411649164,211.8304250517306,57.12034268915596,-0.0029620276764035225,0.02403646521270275,0.01437811367213726
2020-05-04 08:28:06.722349,5,38.3636,29.3158,-6.954448240261854,-149.8407446532531,420909.96875,329.3872663098267,255.0976243870104,45.0519516710662,-0.0034556991886347532,0.02622159756720066,0.016083991155028343
2020-05-04 08:28:08.681373,5,38.3636,29.3158,-6.853650016038098,-149.76786653480906,420890.71875,330.05327805579464,291.29805728999565,30.133503712343124,-0.0017278495943173766,0.025250427424907684,0.014134417288005352
2020-05-04 08:28:10.642088,5,38.3636,29.3158,-6.752838131436003,-149.69500207674335,420871.59375,338.558933119779,331.25643978375444,19.541268545602154,-0.004689877387136221,0.023793673142790794,0.013890719972550869
2020-05-04 08:28:12.631182,5,38.3636,29.3158,-6.652012159568744,-149.62217859981268,420852.53125,350.5235317294676,6.023743185180645,17.046256790857147,-0.0024683563970029354,0.025007635354995728,0.014621810987591743
2020-05-04 08:28:14.591235,5,38.3636,29.3158,-6.551172527323145,-149.54939610401703,420833.59375,1.349205259679877,38.13906940077211,21.443199606789317,-0.003949370235204697,0.025736013427376747,0.01437811367213726
2020-05-04 08:28:17.341500,6,38.3154,29.2589,-6.399888106075593,-149.44026334145855,420805.34375,8.676012788489201,81.63948213016738,34.48966859138303,-0.0012341781985014677,0.02622159756720066,0.01584029383957386
2020-05-04 08:28:19.301843,6,38.3154,29.2589,-6.299015603544614,-149.36756280793296,420786.65625,7.958883052999235,105.22815514583172,45.46720668203547,-0.0012341781985014677,0.025250427424907684,0.01657138578593731
2020-05-04 08:28:21.261483,6,38.3154,29.2589,-6.198129867522118,-149.29488959516402,420768.0625,2.857793623972236,134.69473186685812,54.28883312721381,-0.0009873425588011742,0.02622159756720066,0.014134417288005352
2020-05-04 08:28:23.221418,6,38.3154,29.2589,-6.0972317517817505,-149.22223004277342,420749.59375,354.3187037167836,162.14987934901828,59.32977569696627,-0.0014810138382017612,0.02476484328508377,0.01364702358841896
2020-05-04 08:28:25.181247,6,38.3154,29.2589,-5.99632082943669,-149.1496251318962,420731.1875,342.5744406064172,195.49414251943418,59.605524094138026,-0.0014810138382017612,0.024522049352526665,0.015352901071310043
2020-05-04 08:28:27.150864,6,38.3154,29.2589,-5.895397954260582,-149.07703388139728,420712.90625,331.4643473269951,237.76857385885262,50.25046670497085,-0.006664562504738569,0.02476484328508377,0.013890719972550869
2020-05-04 08:28:29.872781,7,38.6381,29.3158,-5.794462699366602,-149.00446995165507,420694.75,330.3048100172641,294.97817004498773,30.90466280548883,-0.0012341781985014677,0.02476484328508377,0.014865507371723652
2020-05-04 08:28:31.831353,7,38.6381,29.3158,-5.693515918528399,-148.93194700304787,420676.65625,339.1716523147479,334.7361838168023,21.01444131183094,-0.0009873425588011742,0.025007635354995728,0.014621810987591743
2020-05-04 08:28:33.790698,7,38.6381,29.3158,-5.592557184859148,-148.85945137519735,420658.6875,351.10597098829857,8.708794281410677,19.385991025011084,-0.0009873425588011742,0.02549321949481964,0.014865507371723652
2020-05-04 08:28:35.755779,7,38.6381,29.3158,-5.491586925245673,-148.7869694077252,420640.8125,1.488562142924176,40.97858394442151,24.466413795713507,-0.0012341781985014677,0.02694997750222683,0.014134417288005352
2020-05-04 08:28:37.718833,7,38.6381,29.3158,-5.390605566574796,-148.71452842138802,420623.0625,7.660110941909014,72.66886193843438,33.921950097760735,-0.0037025348283350468,0.024522049352526665,0.015352901071310043
2020-05-04 08:28:39.680205,7,38.6381,29.3158,-5.289613108846518,-148.6421010954292,420605.40625,7.84596978073517,103.9726912443025,44.623107998743194,-0.004689877387136221,0.025978805497288704,0.015352901071310043
2020-05-04 08:28:42.454840,8,38.4341,29.3158,-5.1381041451300025,-148.5335284083827,420579.09375,359.7666630221492,144.78786632792603,56.50881194710262,-0.004443041514605284,0.024279257282614708,0.012428538873791695
2020-05-04 08:28:44.417361,8,38.4341,29.3158,-5.037085220418691,-148.46116938431558,420561.6875,350.8996736621548,171.659469768157,60.028346954707665,-0.0014810138382017612,0.023065295070409775,0.014621810987591743
2020-05-04 08:28:46.379746,8,38.4341,29.3158,-4.936055623536801,-148.38883768100513,420544.40625,339.3560844978112,205.05323814967716,58.08673590953731,-0.0009873425588011742,0.02622159756720066,0.014865507371723652
2020-05-04 08:28:48.344873,8,38.4341,29.3158,-4.835016208257979,-148.3165332984514,420527.21875,330.129362948054,247.9726920637441,47.28330958611225,-0.0019746851176023483,0.025978805497288704,0.016327690333127975
2020-05-04 08:28:50.378915,8,38.4341,29.3158,-4.7339665476954025,-148.2442562366543,420510.125,331.3619781592622,300.97782870249443,32.26801296005298,-0.0029620276764035225,0.02476484328508377,0.01364702358841896
2020-05-04 08:28:52.340566,8,38.4341,29.3158,-4.632907068735894,-148.17199283523559,420493.15625,340.77836552453425,339.772113027704,23.649559029473124,-0.0024683563970029354,0.023065295070409775,0.014865507371723652
2020-05-04 08:28:55.081390,9,38.7754,29.2589,-4.481300774823706,-148.06365237462083,420467.875,356.21128766409157,24.37019179823366,24.259238790261385,-0.0014810138382017612,0.024279257282614708,0.016327690333127975
2020-05-04 08:28:57.041351,9,38.7754,29.2589,-4.380217817088925,-147.99144361471545,420451.15625,4.658277806407907,56.420958638903336,31.82619875849612,-0.0012341781985014677,0.026707183569669724,0.015352901071310043
2020-05-04 08:28:59.001290,9,38.7754,29.2589,-4.2791263216176825,-147.91926217556676,420434.5625,7.797580451786568,88.42785005189214,42.323079361781836,-0.0029620276764035225,0.025250427424907684,0.016327690333127975
2020-05-04 08:29:00.962787,9,38.7754,29.2589,-4.228576945344064,-147.88318511637075,420426.28125,5.890504977493913,111.10203586977264,53.17548838683964,-0.004196206107735634,0.02476484328508377,0.014621810987591743
2020-05-04 08:29:02.921570,9,38.7754,29.2589,-4.127472216381304,-147.81103099797875,420409.84375,0.14702339706166814,139.9858471904352,61.396857317189756,-0.002715192036703229,0.02476484328508377,0.01437811367213726
2020-05-04 08:29:04.881393,9,38.7754,29.2589,-4.0263589496820815,-147.7389042003434,420393.46875,351.6422398758875,167.0508952483393,65.59939075122857,-0.0037025348283350468,0.02403646521270275,0.013403326272964478
2020-05-04 08:29:07.640683,10,38.5639,29.5056,-3.874673254820792,-147.6307413246471,420369.15625,336.2651985021378,212.19855858761596,62.716279110106974,-0.0014810138382017612,0.024522049352526665,0.012428538873791695
2020-05-04 08:29:09.601807,10,38.5639,29.5056,-3.7735394975540597,-147.55865550814676,420353.09375,327.9236489782468,255.84376108213175,50.281762631747846,-0.0017278495943173766,0.024279257282614708,0.015109204687178135
2020-05-04 08:29:11.561810,10,38.5639,29.5056,-3.6723980563245107,-147.48659701240314,420337.125,329.59961006093323,300.1160159235897,35.462048472571894,-0.0017278495943173766,0.025978805497288704,0.014865507371723652
2020-05-04 08:29:13.520522,10,38.5639,29.5056,-3.571248931132146,-147.41455217703785,420321.25,339.1757282301351,338.91403977736985,26.557923587503545,-0.0019746851176023483,0.02476484328508377,0.01364702358841896
2020-05-04 08:29:15.481957,10,38.5639,29.5056,-3.4700925488637875,-147.3425210020509,420305.5,351.428795610551,13.072318689281268,25.509955710317442,-0.004936712794005871,0.02549321949481964,0.012915932573378086
2020-05-04 08:29:17.441565,10,38.5639,29.5056,-3.368928909519436,-147.2705171478206,420289.84375,1.5115245985835242,44.961885381575826,31.212420884205848,-0.0037025348283350468,0.02355087921023369,0.015596598386764526
2020-05-04 08:29:20.201885,11,38.4897,29.3158,-3.2171702170113923,-147.16253185704272,420266.5625,6.012595462681538,97.97282085093153,45.04631676500094,-0.00024683563970029354,0.02476484328508377,0.012672236189246178
2020-05-04 08:29:22.160667,11,38.4897,29.3158,-3.115989288750704,-147.0905553235691,420251.15625,1.8436667728026066,127.49927784041142,54.65314517225854,-0.0007405069191008806,0.02694997750222683,0.014134417288005352
2020-05-04 08:29:24.122029,11,38.4897,29.3158,-3.014802170631081,-147.0186061108522,420235.90625,354.20009790873314,155.1305759012662,60.84638505122175,-0.0017278495943173766,0.025250427424907684,0.01584029383957386
2020-05-04 08:29:26.081702,11,38.4897,29.3158,-2.913608435765699,-146.94665689813527,420220.71875,342.55837600148936,188.5788218716064,62.29793685363286,-0.0037025348283350468,0.025978805497288704,0.015109204687178135
2020-05-04 08:29:28.041514,11,38.4897,29.3158,-2.812408724484794,-146.87473500617506,420205.65625,330.6210511909303,230.6447821771777,54.91218009653127,-0.0034556991886347532,0.02476484328508377,0.014134417288005352
2020-05-04 08:29:30.002211,11,38.4897,29.3158,-2.711203250231776,-146.80282677459314,420190.71875,326.8132992758236,275.9198385623878,40.113861504930384,-0.0037025348283350468,0.025007635354995728,0.015109204687178135
2020-05-04 08:29:32.741304,12,38.5936,29.3348,-2.609992013006646,-146.73091854301126,420175.875,336.24612861397515,330.51156667362955,24.181588077134805,-0.0029620276764035225,0.025978805497288704,0.013159629888832569
2020-05-04 08:29:34.701059,12,38.5936,29.3348,-2.5087752262528156,-146.65903763218606,420161.125,348.28185681368024,5.538801888543855,21.52828498082746,-0.0034556991886347532,0.024522049352526665,0.01437811367213726
2020-05-04 08:29:36.661170,12,38.5936,29.3348,-2.4075533168571077,-146.58715672136083,420146.5,359.2669085926674,37.8247714159248,26.05974666491574,-0.002715192036703229,0.026464389637112617,0.012672236189246178
2020-05-04 08:29:38.621456,12,38.5936,29.3348,-2.3063260713761107,-146.51528947091396,420131.96875,5.925958355041334,69.41269219503586,35.36480365426384,-0.0017278495943173766,0.025250427424907684,0.014134417288005352
2020-05-04 08:29:40.581816,12,38.5936,29.3348,-2.205094130140059,-146.44344954122377,420117.5625,6.75883717196139,100.89581396661681,46.391966484331,-0.003208863316103816,0.02476484328508377,0.014134417288005352
2020-05-04 08:29:42.540502,12,38.5936,29.3348,-2.1038572797055415,-146.37159595115523,420103.28125,2.194273616390878,130.3104607593836,55.74286428829364,-0.0014810138382017612,0.024522049352526665,0.015596598386764526
2020-05-04 08:29:45.268576,13,38.3042,29.3158,-1.9519939999258318,-146.26385654718746,420082.03125,350.4788887592788,168.4787326339521,62.7400754891753,-0.0019746851176023483,0.02330808714032173,0.01364702358841896
2020-05-04 08:29:47.230062,13,38.3042,29.3158,-1.8507462638773247,-146.19204393825393,420068.0,338.78057275834595,201.82669776689815,61.492855625974286,-0.004689877387136221,0.024279257282614708,0.013890719972550869
2020-05-04 08:29:49.191367,13,38.3042,29.3158,-1.749494899290821,-146.12023132932043,420054.0625,328.8949599348305,244.93793656266985,50.91035177125329,-0.004196206107735634,0.025978805497288704,0.012915932573378086
2020-05-04 08:29:51.151439,13,38.3042,29.3158,-1.6482394792794977,-146.04843238076523,420040.25,328.50366522746964,289.8730954140234,35.57289561261203,-0.0017278495943173766,0.024522049352526665,0.013890719972550869
2020-05-04 08:29:53.111440,13,38.3042,29.3158,-1.5469805374518835,-145.97664709258842,420026.5625,336.9328665689795,330.1933857262391,24.68070756582807,-0.002715192036703229,0.02476484328508377,0.01437811367213726
2020-05-04 08:29:55.071554,13,38.3042,29.3158,-1.44571828725139,-145.90486180441158,420012.9375,348.8128587716455,4.806054498629833,22.156069865558134,-0.0009873425588011742,0.025736013427376747,0.01437811367213726
2020-05-04 08:29:57.811732,14,38.4155,29.3348,-1.3444527286780175,-145.83307651623474,419999.46875,2.49735450963032,47.62490100688293,29.145848113075527,-0.0014810138382017612,0.024522049352526665,0.013890719972550869
2020-05-04 08:29:59.771158,14,38.4155,29.3348,-1.243184181896883,-145.76130488843626,419986.09375,7.3114980866715635,79.3989546861606,39.27923629401692,-0.0017278495943173766,0.025007635354995728,0.01437811367213726
2020-05-04 08:30:01.751485,14,38.4155,29.3348,-1.141912860351398,-145.6895469210161,419972.8125,6.203304589592049,110.5605453025632,50.29602406673484,-0.002221520757302642,0.024522049352526665,0.014621810987591743
2020-05-04 08:30:03.712298,14,38.4155,29.3348,-1.0406389774849745,-145.61778895359595,419959.65625,0.14969913700923387,139.29093008389978,58.72925180476041,-0.0024683563970029354,0.025007635354995728,0.015596598386764526
2020-05-04 08:30:05.671724,14,38.4155,29.3348,-0.9393626400193179,-145.5460309861758,419946.625,351.11268762557364,166.21457956560624,63.313305945457785,-0.0024683563970029354,0.025007635354995728,0.014621810987591743
2020-05-04 08:30:07.645421,14,38.4155,29.3348,-0.8380841681195457,-145.47427301875564,419933.6875,339.2822586906198,199.40680272509766,62.791445341922966,-0.004936712794005871,0.026707183569669724,0.012672236189246178
2020-05-04 08:30:10.421628,15,38.8236,29.4487,-0.6861626716493321,-145.36665655819291,419914.5,328.93706122087445,265.941970373753,47.33431743883391,-0.003949370235204697,0.025007635354995728,0.01364702358841896
2020-05-04 08:30:12.401672,15,38.8236,29.4487,-0.5848795573553585,-145.2949122511511,419901.84375,332.9963877861329,309.1311757789004,33.25924416335108,-0.0037025348283350468,0.025007635354995728,0.01437811367213726
2020-05-04 08:30:14.361432,15,38.8236,29.4487,-0.4835949489575038,-145.22318160448762,419889.28125,343.4380019137495,346.5751257287829,26.234672932201644,-0.004689877387136221,0.02355087921023369,0.013159629888832569
2020-05-04 08:30:16.321345,15,38.8236,29.4487,-0.38230895317747404,-145.15143729744582,419876.84375,355.601285176865,20.01892928747053,27.00034226080195,-0.003949370235204697,0.024522049352526665,0.016083991155028343
2020-05-04 08:30:18.289381,15,38.8236,29.4487,-0.2810219435412393,-145.07970665078233,419864.5,4.584530546391986,52.016719473390296,33.60677784869967,-0.0024683563970029354,0.025007635354995728,0.015109204687178135
2020-05-04 08:30:20.251045,15,38.8236,29.4487,-0.17973394672922613,-145.00796234374053,419852.28125,8.420371614460317,83.77480417038846,43.90892292855915,-0.0017278495943173766,0.02476484328508377,0.01437811367213726
2020-05-04 08:30:23.001937,16,38.0445,29.3917,-0.027800410716579117,-144.9003732039345,419834.15625,4.426718171845195,126.19144687851572,58.277421130785726,-0.002715192036703229,0.025250427424907684,0.013403326272964478
2020-05-04 08:30:24.961475,16,38.0445,29.3917,0.02284421301192229,-144.86450105041357,419828.1875,356.7025917088271,154.3465521468188,64.85233198056925,-0.0037025348283350468,0.025250427424907684,0.014621810987591743
2020-05-04 08:30:26.921864,16,38.0445,29.3917,0.12413373894587613,-144.7927704037501,419816.28125,344.6979652023944,187.41479371249613,66.45433919001741,-0.0024683563970029354,0.025736013427376747,0.014865507371723652
2020-05-04 08:30:28.884058,16,38.0445,29.3917,0.2254233232432628,-144.7210260967083,419804.5,331.58887704349,220.9335645737402,59.76730395481895,-0.004196206107735634,0.02403646521270275,0.013403326272964478
2020-05-04 08:30:30.852610,16,38.0445,29.3917,0.3267128408395834,-144.6492954500448,419792.84375,324.7976421498612,258.41851017279475,45.78698589369171,-0.0012341781985014677,0.02549321949481964,0.013159629888832569
2020-05-04 08:30:32.811445,16,38.0445,29.3917,0.42800211831206597,-144.577551143003,419781.28125,327.6722092243311,303.4847335241317,30.545999326887706,-0.0014810138382017612,0.02403646521270275,0.012184842489659786
2020-05-04 08:30:35.541759,17,38.3636,29.4107,0.5799350340047981,-144.4699483428186,419764.15625,341.52958729549266,344.0633142700006,19.563528132107226,-0.004443041514605284,0.024522049352526665,0.01584029383957386
2020-05-04 08:30:37.501427,17,38.3636,29.4107,0.6812226306104147,-144.39819037539846,419752.875,353.67490801486474,17.21517761431532,20.292375910891995,-0.002715192036703229,0.025250427424907684,0.014134417288005352
2020-05-04 08:30:39.461629,17,38.3636,29.4107,0.782509320081532,-144.32644606835666,419741.71875,3.278600298076252,49.55055673015213,27.085116861232855,-0.0014810138382017612,0.02549321949481964,0.01364702358841896
2020-05-04 08:30:41.421652,17,38.3636,29.4107,0.8837948356138857,-144.2546881009365,419730.65625,7.791070427733899,81.33789512736547,37.61040934391853,-0.003208863316103816,0.024522049352526665,0.015596598386764526
2020-05-04 08:30:43.381304,17,38.3636,29.4107,0.9850789104032115,-144.18293013351635,419719.71875,6.172482934075543,112.24816893325746,48.79031569439469,-0.0012341781985014677,0.024522049352526665,0.015596598386764526
2020-05-04 08:30:45.341236,17,38.3636,29.4107,1.0863615444495092,-144.1111721660962,419708.875,359.47555710471124,141.0302650768002,57.25036900038549,-0.00024683563970029354,0.025250427424907684,0.013159629888832569
2020-05-04 08:30:48.091417,18,38.8125,29.4297,1.238281920341812,-144.00351472439846,419692.8125,343.9543932433064,186.0782076541947,61.85497859539002,-0.004936712794005871,0.02694997750222683,0.014134417288005352
2020-05-04 08:30:50.051207,18,38.8125,29.4297,1.3395596451896437,-143.93174309659994,419682.28125,332.01624368740505,227.9860490804802,54.556480920029934,-0.0037025348283350468,0.023793673142790794,0.014621810987591743
2020-05-04 08:30:52.011513,18,38.8125,29.4297,1.440835128881654,-143.85995780842313,419671.8125,327.9046405617866,272.8733829472653,39.87906692202203,-0.004936712794005871,0.023065295070409775,0.014134417288005352
2020-05-04 08:30:53.971086,18,38.8125,29.4297,1.491471910232307,-143.82405833414555,419666.625,333.4736540845767,315.66134205943115,26.94102719050227,-0.003208863316103816,0.024522049352526665,0.013403326272964478
2020-05-04 08:30:55.930652,18,38.8125,29.4297,1.592743658664615,-143.75225938559035,419656.34375,344.81683781470934,352.41781297878435,21.425564058352347,-0.0037025348283350468,0.024522049352526665,0.012915932573378086
2020-05-04 08:30:57.891636,18,38.8125,29.4297,1.694012525610867,-143.68046043703518,419646.1875,356.6352178690804,25.35153288761358,23.671818615978193,-0.0014810138382017612,0.024522049352526665,0.014621810987591743
2020-05-04 08:31:00.652693,19,38.8422,29.4107,1.845910276501544,-143.57273469344574,419631.15625,5.580272235863234,78.3589764227561,35.78998293009713,-0.003949370235204697,0.025007635354995728,0.014865507371723652
2020-05-04 08:31:02.611411,19,38.8422,29.4107,1.9471712460415682,-143.50090842413388,419621.25,4.896462297578706,109.2218282252407,46.80083185333172,-0.003949370235204697,0.02476484328508377,0.015596598386764526
2020-05-04 08:31:04.570974,19,38.8422,29.4107,2.0484290139304187,-143.4290684944437,419611.46875,359.24543351742153,138.41345568122824,55.413259849516336,-0.003208863316103816,0.025736013427376747,0.01437811367213726
2020-05-04 08:31:06.531628,19,38.8422,29.4107,2.149682939837861,-143.3572285647535,419601.8125,349.9830750821438,165.44774056711057,60.58870933459385,-0.003208863316103816,0.025007635354995728,0.012915932573378086
2020-05-04 08:31:08.491826,19,38.8422,29.4107,2.2509330237638956,-143.28536131430664,419592.25,338.22750331294606,198.93509620063824,60.29427353985294,-0.002715192036703229,0.023793673142790794,0.01437811367213726
2020-05-04 08:31:10.451885,19,38.8422,29.4107,2.35217905226511,-143.21349406385977,419582.8125,328.31611164795567,242.18694127066382,50.24112300618627,-0.0014810138382017612,0.024522049352526665,0.014621810987591743
2020-05-04 08:31:13.261338,20,38.6493,29.3348,2.5040399841672927,-143.10567269762194,419568.84375,329.58584039956645,302.06348727106797,30.28002834551282,-0.0024683563970029354,0.02476484328508377,0.016083991155028343
2020-05-04 08:31:15.221824,20,38.6493,29.3348,2.605274913611106,-143.03376446604005,419559.6875,339.7310909115489,340.4359493584213,21.904787205993365,-0.005430384073406458,0.025250427424907684,0.013890719972550869
2020-05-04 08:31:17.180735,20,38.6493,29.3348,2.706505147299865,-142.96185623445814,419550.625,352.0658413780226,13.980085834695458,21.673045717644,-0.0037025348283350468,0.02476484328508377,0.016327690333127975
2020-05-04 08:31:19.141288,20,38.6493,29.3348,2.8077304717901583,-142.88992068211957,419541.6875,2.295454331208154,45.98754415338538,27.654380685154862,-0.004936712794005871,0.02549321949481964,0.01437811367213726
2020-05-04 08:31:21.102761,20,38.6493,29.3348,2.908950460195162,-142.817985129781,419532.84375,7.578128181301351,78.02675602152668,37.52089288465635,-0.004936712794005871,0.02403646521270275,0.015109204687178135
2020-05-04 08:31:23.061723,20,38.6493,29.3348,3.0101653259582886,-142.74602225668573,419524.125,6.967008531258685,109.2247447160163,48.63487424926355,-0.005924055352807045,0.025250427424907684,0.014865507371723652
2020-05-04 08:31:25.801382,21,38.9312,29.3728,3.1113742153058914,-142.6740593835905,419515.5,357.87729694771394,149.26889389518294,59.7077993467698,-0.005677219945937395,0.02549321949481964,0.015352901071310043
2020-05-04 08:31:27.761652,21,38.9312,29.3728,3.2125777685682047,-142.60206918973856,419507.03125,346.2354143175813,182.84905813915273,62.341158290700704,-0.005677219945937395,0.026464389637112617,0.015109204687178135
2020-05-04 08:31:29.721348,21,38.9312,29.3728,3.313775131971583,-142.53006533550828,419498.625,334.057012003851,223.96696086716958,56.08262521836675,-0.004689877387136221,0.02476484328508377,0.014134417288005352
2020-05-04 08:31:31.681636,21,38.9312,29.3728,3.414966305516026,-142.45804782089968,419490.34375,329.27319873559287,268.4356792699138,42.53186799942537,-0.0029620276764035225,0.025978805497288704,0.011697448790073395
2020-05-04 08:31:33.648654,21,38.9312,29.3728,3.5161510757581222,-142.38600298553436,419482.1875,334.087443911698,310.782876029655,29.37967622421633,-0.0024683563970029354,0.025736013427376747,0.014621810987591743
2020-05-04 08:31:35.610400,21,38.9312,29.3728,3.6173292292544597,-142.31394448979074,419474.125,345.06687567229784,347.92152847646895,22.898446541541407,-0.0012341781985014677,0.02476484328508377,0.015352901071310043
2020-05-04 08:31:38.350825,22,38.4934,29.4866,3.769084079781096,-142.20583625560778,419462.25,0.37501761951677964,32.28120205534027,26.063346174608338,-0.002221520757302642,0.02549321949481964,0.016083991155028343
2020-05-04 08:31:40.310790,22,38.4934,29.4866,3.870244730917685,-142.1337231183508,419454.5,7.9100002428831,64.22338767122696,34.736644816676105,-0.004689877387136221,0.02622159756720066,0.013159629888832569
2020-05-04 08:31:42.278407,22,38.4934,29.4866,3.9713985518651045,-142.0616099810938,419446.8125,9.81116973797781,96.2477882741531,45.70867777485751,-0.005924055352807045,0.02476484328508377,0.013159629888832569
2020-05-04 08:31:44.239909,22,38.4934,29.4866,4.072544688849708,-141.98946952308012,419439.28125,5.734454364866163,126.89632240086104,55.721646305636995,-0.004196206107735634,0.024279257282614708,0.012915932573378086
2020-05-04 08:31:46.210962,22,38.4934,29.4866,4.173683141871495,-141.91730174430975,419431.84375,357.5803796598702,154.79454425447994,62.36247531110031,-0.004196206107735634,0.025007635354995728,0.01437811367213726
2020-05-04 08:31:48.180001,22,38.4934,29.4866,4.2748134840436425,-141.84512030516106,419424.5,345.701680283948,188.85700181612268,63.900367534809554,-0.0019746851176023483,0.025007635354995728,0.014621810987591743
2020-05-04 08:31:50.902279,23,38.2597,29.4676,4.375936142252973,-141.77291154525568,419417.28125,332.19301239821954,242.60438877235666,53.05703241606411,-0.0012341781985014677,0.025007635354995728,0.015109204687178135
2020-05-04 08:31:52.860932,23,38.2597,29.4676,4.477050262725842,-141.70068912497197,419410.1875,330.35627207756556,279.02726727623093,38.26279827758689,-0.0017278495943173766,0.02622159756720066,0.014134417288005352
2020-05-04 08:31:54.820988,23,38.2597,29.4676,4.578155845462248,-141.62843938393158,419403.1875,336.85095552535813,319.98386142661957,26.203192590317055,-0.002221520757302642,0.025007635354995728,0.016815081238746643
2020-05-04 08:31:56.781916,23,38.2597,29.4676,4.679252890462192,-141.5561623221345,419396.28125,348.168212711175,355.84365059758153,21.63854130950439,-0.002221520757302642,0.02476484328508377,0.01437811367213726
2020-05-04 08:31:58.748646,23,38.2597,29.4676,4.78034097083885,-141.4838715999591,419389.53125,0.0017186463499044584,28.586723704976404,24.376062345825282,-0.004196206107735634,0.025736013427376747,0.014621810987591743
2020-05-04 08:32:00.710200,23,38.2597,29.4676,4.8814196597054,-141.411553557027,419382.84375,7.6886081986736,60.64087831947441,32.7622454483951,-0.002221520757302642,0.025978805497288704,0.014134417288005352
2020-05-04 08:32:03.522327,24,38.3858,29.5246,5.033020404088887,-141.3030218511155,419373.0625,8.998486509773013,105.22873571191117,48.326095057265604,-0.0009873425588011742,0.026464389637112617,0.01437811367213726
2020-05-04 08:32:05.481243,24,38.3858,29.5246,5.1340760410669875,-141.2306355062917,419366.6875,3.513436075563042,134.82860357459037,57.41004857789664,-0.0009873425588011742,0.025007635354995728,0.015109204687178135
2020-05-04 08:32:07.441573,24,38.3858,29.5246,5.235121432761333,-141.15823550108956,419360.40625,354.60961513391277,162.2692027538184,62.84439979855807,-0.002221520757302642,0.025736013427376747,0.01584029383957386
2020-05-04 08:32:09.401662,24,38.3858,29.5246,5.336156579171924,-141.0857945147524,419354.25,342.77025529973236,195.66346290895882,62.96715878851071,-0.0019746851176023483,0.025736013427376747,0.015352901071310043
2020-05-04 08:32:11.368120,24,38.3858,29.5246,5.4371819071855825,-141.01333986803692,419348.1875,332.37934849651396,238.6038513528318,53.75662478708642,-0.003208863316103816,0.025736013427376747,0.014134417288005352
2020-05-04 08:32:13.334722,24,38.3858,29.5246,5.538196563028663,-140.94084424018638,419342.25,330.57385458376547,282.99958918429445,38.790440636254125,-0.005677219945937395,0.024279257282614708,0.014621810987591743
2020-05-04 08:32:16.075552,25,38.5342,29.4297,5.689698269669185,-140.83205298708643,419333.53125,340.93214723369704,335.6418993441446,25.576073649030455,-0.0034556991886347532,0.024279257282614708,0.014865507371723652
2020-05-04 08:32:18.041647,25,38.5342,29.4297,5.790686031642409,-140.75950271772257,419327.875,353.0474262197785,9.8398479947554,24.24909595934392,-0.0017278495943173766,0.024522049352526665,0.015596598386764526
2020-05-04 08:32:20.001364,25,38.5342,29.4297,5.891662694558231,-140.68691146722367,419322.3125,3.4045259344828387,41.97369469516818,29.68982486914285,-0.0014810138382017612,0.02694997750222683,0.016327690333127975
2020-05-04 08:32:21.961731,25,38.5342,29.4297,5.942146757147911,-140.65060218159587,419319.5625,9.337710416222635,74.01983920531704,39.47696002520503,-0.003208863316103816,0.02622159756720066,0.014865507371723652
2020-05-04 08:32:23.927563,25,38.5342,29.4297,6.0431059177039845,-140.57796994996195,419314.1875,9.258320566178638,105.8418408125682,50.697823605039176,-0.0037025348283350468,0.02622159756720066,0.01364702358841896
2020-05-04 08:32:25.889139,25,38.5342,29.4297,6.144053552315834,-140.50529673719302,419308.90625,3.673124190810648,135.6447428785152,59.87717437780777,-0.0037025348283350468,0.024522049352526665,0.015352901071310043
2020-05-04 08:32:28.641509,26,38.5825,29.5056,6.295452806118806,-140.3962459369046,419301.1875,349.103030820797,181.26286964782236,65.59000607130896,-0.0012341781985014677,0.02476484328508377,0.014134417288005352
2020-05-04 08:32:30.600678,26,38.5825,29.5056,6.396370558653037,-140.32350442224396,419296.15625,336.87263454578374,222.44389698414844,60.20625289201899,-0.0009873425588011742,0.026464389637112617,0.013890719972550869
2020-05-04 08:32:32.561499,26,38.5825,29.5056,6.497275504582574,-140.2507219264483,419291.28125,331.6003039499715,266.03570105973307,47.12608204651314,-0.0014810138382017612,0.02549321949481964,0.01364702358841896
2020-05-04 08:32:34.521392,26,38.5825,29.5056,6.598168070794241,-140.17791210989597,419286.46875,335.70192133902333,308.44371040874944,33.667573362501955,-0.0017278495943173766,0.02476484328508377,0.014865507371723652
2020-05-04 08:32:36.481556,26,38.5825,29.5056,6.699047830401214,-140.10507497258695,419281.8125,346.16958666190794,345.47107260700085,26.896583149572994,-0.002715192036703229,0.023793673142790794,0.013403326272964478
2020-05-04 08:32:38.454586,26,38.5825,29.5056,6.79991435651667,-140.0321968541429,419277.25,357.63907830559725,19.174758887191977,27.73947801202405,-0.0014810138382017612,0.025250427424907684,0.015352901071310043
2020-05-04 08:32:41.186032,27,38.4712,29.4866,6.951189813140934,-139.92281820477433,419270.59375,8.958334388963447,63.37285153464196,37.990427408959704,-0.004196206107735634,0.024522049352526665,0.01584029383957386
2020-05-04 08:32:43.148061,27,38.4712,29.4866,7.052022615197363,-139.84985812406026,419266.3125,10.896377514066115,95.58774611351974,49.06124539310701,-0.0024683563970029354,0.025250427424907684,0.014865507371723652
2020-05-04 08:32:45.114096,27,38.4712,29.4866,7.152842183762275,-139.77685706221115,419262.125,6.742340557568516,125.83777968329247,59.088417302265526,-0.0004936712794005871,0.02476484328508377,0.015109204687178135
2020-05-04 08:32:47.071393,27,38.4712,29.4866,7.253647238175201,-139.70382867960538,419258.03125,358.7167025439945,153.94316117443785,65.5761271269155,-0.0012341781985014677,0.025250427424907684,0.01437811367213726
2020-05-04 08:32:49.047853,27,38.4712,29.4866,7.354438632209787,-139.6307593158646,419254.0625,346.7803438850378,187.8448770641535,67.53822190940673,-0.0019746851176023483,0.026707183569669724,0.01437811367213726
2020-05-04 08:32:51.010626,27,38.4712,29.4866,7.455215512092386,-139.55764897098877,419250.21875,335.28828679043465,228.89882190078237,60.978583362607345,-0.003949370235204697,0.02549321949481964,0.015352901071310043
2020-05-04 08:32:53.775592,28,38.716,29.4866,7.555977877823,-139.48449764497792,419246.46875,330.2400871446891,276.16442763656596,41.702870864388,-0.005924055352807045,0.025250427424907684,0.014621810987591743
2020-05-04 08:32:55.738690,28,38.716,29.4866,7.65672487562798,-139.4113053378321,419242.8125,336.71476667594993,317.74500054877024,29.4475580592825,-0.0037025348283350468,0.025250427424907684,0.014621810987591743
2020-05-04 08:32:57.699970,28,38.716,29.4866,7.757457359280974,-139.33808570992954,419239.28125,348.05874783066815,353.6193055792658,24.746081013921554,-0.0007405069191008806,0.025250427424907684,0.01584029383957386
2020-05-04 08:32:59.665788,28,38.716,29.4866,7.858174475008336,-139.26482510089198,419235.875,359.96779053208644,26.3122843717405,27.434440056143988,-0.0009873425588011742,0.02476484328508377,0.01437811367213726
2020-05-04 08:33:01.627187,28,38.716,29.4866,7.958876222810066,-139.1915235107194,419232.5625,8.389322428267086,58.50983880786292,35.61089195496481,-0.0019746851176023483,0.025250427424907684,0.014621810987591743
2020-05-04 08:33:03.592738,28,38.716,29.4866,8.059561748912516,-139.11818093941181,419229.34375,11.124488756871617,90.96491015871504,46.670464032643686,-0.004443041514605284,0.024522049352526665,0.014621810987591743
2020-05-04 08:33:06.361923,29,38.397,29.5625,8.21056100976222,-139.0080782899912,419224.75,5.0731050767804,133.9761003435244,60.70497281464581,-0.004443041514605284,0.024279257282614708,0.014621810987591743
2020-05-04 08:33:08.320879,29,38.397,29.5625,8.311206408503296,-138.93464009603522,419221.8125,356.63082755154795,161.72669448842265,66.30137027336579,-0.006170891225337982,0.024279257282614708,0.01364702358841896
2020-05-04 08:33:10.281651,29,38.397,29.5625,8.41183643931874,-138.8611472605659,419219.0,345.0548579544532,195.10711668030459,66.79912030913047,-0.004196206107735634,0.025250427424907684,0.014134417288005352
2020-05-04 08:33:12.265883,29,38.397,29.5625,8.512448540887613,-138.78761344396153,419216.28125,334.3096043521892,237.5350223703732,57.966066957470694,-0.002221520757302642,0.025250427424907684,0.014621810987591743
2020-05-04 08:33:14.237679,29,38.397,29.5625,8.613044420757207,-138.71403864622215,419213.65625,332.09139967393725,281.2629316255487,43.83006839459136,-0.0014810138382017612,0.02403646521270275,0.015596598386764526
2020-05-04 08:33:16.200133,29,38.397,29.5625,8.713623225153876,-138.64042286734775,419211.15625,338.9823689898267,321.72081609859424,32.489297428783054,-0.0012341781985014677,0.025250427424907684,0.012184842489659786
2020-05-04 08:33:18.951483,30,38.6084,29.4676,8.81418495407762,-138.56675244696,419208.75,354.87656496677306,8.692794563279922,28.52865002155837,-0.005677219945937395,0.025250427424907684,0.01364702358841896
2020-05-04 08:33:20.914145,30,38.6084,29.4676,8.914728753754792,-138.49304104543722,419206.46875,5.166723491526002,41.05587094997478,33.69752715710705,-0.0029620276764035225,0.02549321949481964,0.01437811367213726
2020-05-04 08:33:22.871503,30,38.6084,29.4676,9.01525547795904,-138.41928866277942,419204.28125,11.285367032582096,73.7199460894293,43.29059273318707,-0.004443041514605284,0.025250427424907684,0.01437811367213726
2020-05-04 08:33:24.830967,30,38.6084,29.4676,9.11576341914307,-138.34548163860828,419202.21875,11.010737078886931,105.9392802912676,54.46088217731185,-0.0024683563970029354,0.02476484328508377,0.016083991155028343
2020-05-04 08:33:26.791517,30,38.6084,29.4676,9.21625343108053,-138.2716336333021,419200.25,5.117703223852821,136.00711173474104,63.68435597211873,-0.0029620276764035225,0.02403646521270275,0.01364702358841896
2020-05-04 08:33:28.751325,30,38.6084,29.4676,9.316725513771416,-138.19774464686088,419198.375,356.068689535921,163.66615402400444,68.51080669627069,-0.0014810138382017612,0.02403646521270275,0.015109204687178135
2020-05-04 08:33:31.501577,31,38.8904,29.6194,9.467397779314606,-138.08680871436155,419195.78125,340.39085644952087,208.93980703271117,66.73648747444146,-0.002715192036703229,0.024279257282614708,0.013403326272964478
2020-05-04 08:33:33.461352,31,38.8904,29.6194,9.56782290445495,-138.01279678451527,419194.1875,332.02798990523013,251.89646498718713,55.030557520131346,-0.005183548666536808,0.025736013427376747,0.01364702358841896
2020-05-04 08:33:35.421232,31,38.8904,29.6194,9.66822839280143,-137.93873021315568,419192.71875,333.11803345525084,295.6324885070966,40.52979953481665,-0.0029620276764035225,0.025007635354995728,0.012428538873791695
2020-05-04 08:33:37.381757,31,38.8904,29.6194,9.768615098127691,-137.86462266066104,419191.34375,342.5269622539492,334.47392333569405,30.98966109461505,-0.003949370235204697,0.02622159756720066,0.01364702358841896
2020-05-04 08:33:39.342203,31,38.8904,29.6194,9.868981312886444,-137.79046046665303,419190.0625,354.7297871897173,8.47187209457586,29.46438081520824,-0.0037025348283350468,0.02476484328508377,0.01364702358841896
2020-05-04 08:33:41.301487,31,38.8904,29.6194,9.96932874462498,-137.71624363113168,419188.875,5.290654712694945,41.20314007376402,34.60571692047613,-0.005183548666536808,0.025250427424907684,0.013403326272964478
2020-05-04 08:33:44.051965,32,38.4267,29.4676,10.1198114724187,-137.60482958539043,419187.34375,11.962004845351288,86.40586134056907,48.472728973462026,-0.003208863316103816,0.025007635354995728,0.01584029383957386
2020-05-04 08:33:46.011414,32,38.4267,29.4676,10.22010767773846,-137.53047614608568,419186.4375,9.27172225110385,117.49367908374639,59.032641977503204,-0.0019746851176023483,0.025978805497288704,0.013890719972550869
2020-05-04 08:33:47.976534,32,38.4267,29.4676,10.270248096435523,-137.49329259624412,419186.0,1.8674558947949378,146.78596986772158,66.87460072964828,-0.0019746851176023483,0.024522049352526665,0.014621810987591743
2020-05-04 08:33:49.939095,32,38.4267,29.4676,10.370513565904018,-137.41887085504766,419185.25,350.26557426753646,180.48533457308642,70.10812156575903,-0.0029620276764035225,0.02549321949481964,0.015109204687178135
2020-05-04 08:33:51.900643,32,38.4267,29.4676,10.470757691031356,-137.34439447233785,419184.625,337.756937430078,221.42305691079832,64.51287157881961,-0.0037025348283350468,0.026464389637112617,0.014621810987591743
2020-05-04 08:33:53.860818,32,38.4267,29.4676,10.570981325591184,-137.26986344811465,419184.0625,331.8338964195859,264.88050433521965,51.739321585533986,-0.002221520757302642,0.025007635354995728,0.01584029383957386
2020-05-04 08:33:56.611153,33,38.4378,29.6384,10.72127622318273,-137.15797128913152,419183.46875,338.56527324287606,319.461809577788,35.18889896237933,-0.0007405069191008806,0.02549321949481964,0.01584029383957386
2020-05-04 08:33:58.571336,33,38.4378,29.6384,10.821446070002844,-137.08330366112494,419183.1875,349.82784025023506,355.55273576535774,30.579880480265555,-0.0014810138382017612,0.025978805497288704,0.014621810987591743
2020-05-04 08:34:00.533741,33,38.4378,29.6384,10.921593718708156,-137.008581391605,419183.03125,1.0123079931379961,28.74124136702231,33.52425891824216,-0.0009873425588011742,0.02549321949481964,0.015596598386764526
2020-05-04 08:34:02.490758,33,38.4378,29.6384,11.02171831552502,-136.9338044805717,419182.9375,9.132698873190117,61.29930855546364,41.91042323779176,-0.0019746851176023483,0.025007635354995728,0.014134417288005352
2020-05-04 08:34:04.451459,33,38.4378,29.6384,11.121821568000726,-136.8589592676467,419182.96875,12.14380569803681,85.84459737571245,53.00039307237178,-0.005183548666536808,0.025736013427376747,0.014865507371723652
2020-05-04 08:34:06.410637,33,38.4378,29.6384,11.221901768587985,-136.78407307358668,419183.125,9.933744312822858,117.9095146607951,63.67924016043039,-0.0034556991886347532,0.02403646521270275,0.015109204687178135
2020-05-04 08:34:09.191631,34,38.4155,29.6384,11.371979807673382,-136.6716208390916,419183.53125,359.22440405865814,158.60499750940332,73.15620959609312,-0.002221520757302642,0.02355087921023369,0.015596598386764526
2020-05-04 08:34:11.151590,34,38.4155,29.6384,11.47200280542634,-136.5965843808698,419183.90625,347.29026702545076,191.93837335828223,74.2355912208194,-0.0012341781985014677,0.02403646521270275,0.013159629888832569
2020-05-04 08:34:13.111281,34,38.4155,29.6384,11.572001897517206,-136.52147962075637,419184.40625,335.91436583542014,233.55824034878165,66.5684306699133,-0.0024683563970029354,0.025007635354995728,0.014621810987591743
2020-05-04 08:34:15.072348,34,38.4155,29.6384,11.671977937719621,-136.44632021912955,419185.03125,332.55111409376144,276.98081965749003,52.91966365147681,-0.0012341781985014677,0.02549321949481964,0.013159629888832569
2020-05-04 08:34:17.031728,34,38.4155,29.6384,11.771929218486296,-136.37110617598935,419185.71875,338.4313878747655,318.31230581594775,40.866292219371914,-0.0009873425588011742,0.025250427424907684,0.01364702358841896
2020-05-04 08:34:19.001855,34,38.4155,29.6384,11.87185744736452,-136.2958238309575,419186.53125,349.76644111846485,354.38028726366133,35.80372185561261,-0.002715192036703229,0.025736013427376747,0.015109204687178135
2020-05-04 08:34:21.751182,35,38.4007,29.6194,11.971760916807005,-136.2204731840339,419187.4375,4.517879852923709,38.87083879297435,40.516340647057135,-0.0012341781985014677,0.024522049352526665,0.012672236189246178
2020-05-04 08:34:23.711150,35,38.4007,29.6194,12.071639626813747,-136.14506789559695,419188.46875,10.48552114492234,71.48468472127259,49.948654305926325,-0.0019746851176023483,0.025007635354995728,0.01437811367213726
2020-05-04 08:34:25.671539,35,38.4007,29.6194,12.171493577384748,-136.06960796564667,419189.5625,10.563328098626185,103.64396106973896,60.914133697599105,-0.0019746851176023483,0.024279257282614708,0.01437811367213726
2020-05-04 08:34:27.631644,35,38.4007,29.6194,12.271321914746363,-135.99407973380465,419190.78125,5.197166071543572,133.48936740289093,70.08934537573067,-0.0012341781985014677,0.025250427424907684,0.01437811367213726
2020-05-04 08:34:29.591079,35,38.4007,29.6194,12.37112634644588,-135.91848320007097,419192.125,356.8518479907779,161.51249975605103,75.31101816601625,-0.0012341781985014677,0.02549321949481964,0.015109204687178135
2020-05-04 08:34:31.551825,35,38.4007,29.6194,12.470904311162366,-135.84281836444555,419193.53125,344.4202497107417,194.19894740750303,73.48150418550415,-0.002715192036703229,0.02549321949481964,0.01584029383957386
2020-05-04 08:34:34.281111,36,38.46,29.5435,12.62052302002608,-135.72920499779156,419195.84375,331.41215102135783,248.82218318138607,61.29506700798906,-0.0037025348283350468,0.02549321949481964,0.01437811367213726
2020-05-04 08:34:36.241204,36,38.46,29.5435,12.72023609794545,-135.65338989800443,419197.53125,331.55118976719723,292.68108180446404,46.45582192288145,-0.0012341781985014677,0.024522049352526665,0.013403326272964478
2020-05-04 08:34:38.200841,36,38.46,29.5435,12.819923562655433,-135.57749283594725,419199.28125,339.94365835135073,331.96599227813397,36.59462702564882,-0.0007405069191008806,0.02355087921023369,0.014865507371723652
2020-05-04 08:34:40.162018,36,38.46,29.5435,12.919583706608735,-135.5015411323767,419201.15625,351.6260830634059,6.413857977362386,34.619630015815446,-0.0007405069191008806,0.025736013427376747,0.016083991155028343
2020-05-04 08:34:42.121373,36,38.46,29.5435,13.019217383579004,-135.42552112691445,419203.125,2.2828494305383074,38.85468881068185,39.35691945054206,-0.0012341781985014677,0.02622159756720066,0.01437811367213726
2020-05-04 08:34:44.088148,36,38.46,29.5435,13.118823739792592,-135.34941915918216,419205.21875,8.645260715524865,71.53816510247378,48.85718666146371,-0.0029620276764035225,0.026464389637112617,0.015109204687178135
2020-05-04 08:34:46.831306,37,38.0594,29.6763,13.2184027752495,-135.27326254993653,419207.375,7.82634493970243,114.73851737634664,63.45635742743453,-0.0034556991886347532,0.025978805497288704,0.013403326272964478
2020-05-04 08:34:48.791652,37,38.0594,29.6763,13.317954489949729,-135.19702397842084,419209.65625,0.8775112750208857,151.1426060298142,70.92401498287374,-0.002715192036703229,0.026707183569669724,0.013890719972550869
2020-05-04 08:34:50.751608,37,38.0594,29.6763,13.41747803011963,-135.1207307653918,419212.03125,349.14307536612716,184.94649995023693,73.16346325699168,-0.003208863316103816,0.025250427424907684,0.01364702358841896
2020-05-04 08:34:52.710753,37,38.0594,29.6763,13.516974249532852,-135.04435559009272,419214.5,336.95616092914383,226.37499870057096,66.9539060561013,-0.0024683563970029354,0.025736013427376747,0.01584029383957386
2020-05-04 08:34:54.678160,37,38.0594,29.6763,13.616441440642102,-134.96791211290196,419217.0625,332.32317360568516,270.0182682515516,53.751211862169185,-0.0017278495943173766,0.02622159756720066,0.015352901071310043
2020-05-04 08:34:56.640864,37,38.0594,29.6763,13.715880457221026,-134.89140033381946,419219.71875,337.0408245390007,312.0296826664112,41.16910524112984,-0.0014810138382017612,0.025250427424907684,0.01364702358841896
2020-05-04 08:34:59.381711,38,38.6789,29.6194,13.864985194349696,-134.77648923122317,419223.90625,351.84348371581916,359.9182316633096,34.433145360906586,-0.0009873425588011742,0.02622159756720066,0.015352901071310043
2020-05-04 08:35:01.341647,38,38.6789,29.6194,13.964352493942334,-134.69979986722225,419226.8125,2.9487245727228504,32.59776766299203,37.787878149122974,-0.0024683563970029354,0.025736013427376747,0.014621810987591743
2020-05-04 08:35:03.301767,38,38.6789,29.6194,14.063689057683707,-134.6230285409513,419229.84375,10.43899218874892,65.11526694285806,46.6693438816198,-0.006417726632207632,0.02622159756720066,0.014865507371723652
2020-05-04 08:35:05.260943,38,38.6789,29.6194,14.162997446894753,-134.54618891278866,419232.9375,11.903482930768972,97.73751400383541,57.72918233667631,-0.0034556991886347532,0.025978805497288704,0.014865507371723652
2020-05-04 08:35:07.221919,38,38.6789,29.6194,14.262275100254536,-134.469267322356,419236.15625,7.465257597719598,128.37479880898033,67.75341384939715,-0.005430384073406458,0.02403646521270275,0.014621810987591743
2020-05-04 08:35:09.180880,38,38.6789,29.6194,14.361522871536698,-134.3922774300316,419239.4375,359.3839699775526,156.541979851736,73.67365106723494,-0.003949370235204697,0.023793673142790794,0.014865507371723652
2020-05-04 08:35:12.060247,39,38.3339,29.6763,14.510337325625644,-134.27664232738329,419244.59375,343.57375875369263,203.07428646031434,73.73451488292893,-0.0037025348283350468,0.025978805497288704,0.01437811367213726
2020-05-04 08:35:14.021922,39,38.3339,29.6763,14.609508257279643,-134.1994475293838,419248.125,334.08236054340824,245.43050931504365,63.721088729475056,-0.0014810138382017612,0.02476484328508377,0.014134417288005352
2020-05-04 08:35:15.982168,39,38.3339,29.6763,14.659083477822888,-134.16082963981657,419249.9375,333.54425775002716,288.9137133828251,49.02422576780554,-0.0019746851176023483,0.025978805497288704,0.014621810987591743
2020-05-04 08:35:17.941949,39,38.3339,29.6763,14.758208305699991,-134.08352555879034,419253.625,341.57342857222767,328.5279294744961,38.55057805298162,-0.003949370235204697,0.025978805497288704,0.014621810987591743
2020-05-04 08:35:19.901527,39,38.3339,29.6763,14.857300690178537,-134.0061395154941,419257.40625,353.5031953515833,3.391581872232018,35.773771476102105,-0.003949370235204697,0.02549321949481964,0.011453751474618912
2020-05-04 08:35:21.879383,39,38.3339,29.6763,14.956362338805816,-133.92868517030615,419261.28125,4.487512831873833,36.16686935340385,40.023559573913644,-0.0034556991886347532,0.024279257282614708,0.013890719972550869
2020-05-04 08:35:24.621770,40,38.4192,29.6004,15.10489675513879,-133.8123533883625,419267.28125,12.055163502988384,80.74901670769448,53.01435739412987,-0.0014810138382017612,0.02403646521270275,0.01364702358841896
2020-05-04 08:35:26.581917,40,38.4192,29.6004,15.203878149043323,-133.73468047712112,419271.40625,10.67574703594907,112.51935476406365,63.87772545771096,-0.0029620276764035225,0.02549321949481964,0.014865507371723652
2020-05-04 08:35:28.541572,40,38.4192,29.6004,15.302827099549297,-133.65693926398802,419275.59375,4.442586835721251,141.77075320547797,72.03907751582418,-0.0037025348283350468,0.025250427424907684,0.01584029383957386
2020-05-04 08:35:30.501998,40,38.4192,29.6004,15.401743606656716,-133.5791160885849,419279.90625,355.2968478507451,168.96694089544627,76.04911572848451,-0.003208863316103816,0.025250427424907684,0.016083991155028343
2020-05-04 08:35:32.461679,40,38.4192,29.6004,15.500627670365574,-133.50121095091174,419284.3125,343.77683906073736,202.2175211912063,74.94758380027987,-0.004443041514605284,0.025250427424907684,0.013403326272964478
2020-05-04 08:35:34.421843,40,38.4192,29.6004,15.599477583128584,-133.42322385096853,419288.8125,334.03636946463195,244.68493269543424,64.85052881062836,-0.0029620276764035225,0.02622159756720066,0.013159629888832569
2020-05-04 08:35:37.181019,41,38.5231,29.6004,15.747689273023276,-133.30608610670282,419295.71875,335.07179540695466,301.51199047672446,46.16416260003815,-0.0034556991886347532,0.025250427424907684,0.015596598386764526
2020-05-04 08:35:39.141842,41,38.5231,29.6004,15.846455515968954,-133.2278941010845,419300.4375,344.43285994749687,331.712904741081,37.12014519548419,-0.005183548666536808,0.025250427424907684,0.015109204687178135
2020-05-04 08:35:41.101706,41,38.5231,29.6004,15.94518760796878,-133.14960647281782,419305.25,356.1470211335305,5.922327255723826,35.059501028553434,-0.0034556991886347532,0.02549321949481964,0.012428538873791695
2020-05-04 08:35:43.061244,41,38.5231,29.6004,16.043883841475463,-133.0712368822811,419310.1875,7.004605307545019,38.31823892307988,39.77049081988091,-0.004936712794005871,0.022579709067940712,0.01437811367213726
2020-05-04 08:35:45.021772,41,38.5231,29.6004,16.14254763158359,-132.99278532947434,419315.1875,13.201689302350479,71.13488341311955,49.11128677406111,-0.004196206107735634,0.02549321949481964,0.013403326272964478
2020-05-04 08:35:46.992383,41,38.5231,29.6004,16.191865012485668,-132.9535254021251,419317.71875,12.568875690843383,110.97673604944876,59.90567675721424,-0.0012341781985014677,0.02476484328508377,0.01364702358841896
2020-05-04 08:35:49.763930,42,38.6604,29.6194,16.339767636320417,-132.835609016294,419325.46875,2.5955869306036776,152.3124535100973,70.85169010975248,-0.004689877387136221,0.024522049352526665,0.015109204687178135
2020-05-04 08:35:51.721958,42,38.6604,29.6194,16.438323850949114,-132.75688425592043,419330.75,350.9327360466059,186.03006848092446,73.01977656742211,-0.0034556991886347532,0.025978805497288704,0.014865507371723652
2020-05-04 08:35:53.681341,42,38.6604,29.6194,16.536845914631964,-132.67807753327682,419336.125,339.05364542891033,226.9193784377993,66.91894914792918,-0.0019746851176023483,0.026707183569669724,0.01657138578593731
2020-05-04 08:35:55.641016,42,38.6604,29.6194,16.635330412274378,-132.59918884836318,419341.5625,334.50163341315675,269.8006379340275,53.8993723256451,-0.004196206107735634,0.025736013427376747,0.014865507371723652
2020-05-04 08:35:57.601342,42,38.6604,29.6194,16.73377905142365,-132.52020454080116,419347.125,339.1781085510609,310.93261426682915,41.36815061392235,-0.002221520757302642,0.025736013427376747,0.014134417288005352
2020-05-04 08:35:59.562364,42,38.6604,29.6194,16.83219183207978,-132.44112461059075,419352.78125,349.8419189776617,347.2786420434834,35.00911130795167,-0.005924055352807045,0.025736013427376747,0.014865507371723652
2020-05-04 08:36:02.372094,43,38.0074,29.6384,16.97974099362498,-132.32233396054588,419361.40625,5.60743803262649,32.45180652042885,38.26406527767792,-0.004196206107735634,0.025007635354995728,0.015352901071310043
2020-05-04 08:36:04.334472,43,38.0074,29.6384,17.07805985918002,-132.24303546428203,419367.28125,12.652578805348243,65.55799297466912,47.247058357092406,-0.003208863316103816,0.025007635354995728,0.013403326272964478
2020-05-04 08:36:06.291555,43,38.0074,29.6384,17.176342866241917,-132.16362768499147,419373.21875,13.47254643030286,98.14660135398415,58.24202709050672,-0.0007405069191008806,0.024279257282614708,0.013403326272964478
2020-05-04 08:36:08.251828,43,38.0074,29.6384,17.274586599716088,-132.08413794343085,419379.28125,9.072584670757543,129.07557621782365,68.00444379196263,-0.003949370235204697,0.02355087921023369,0.01437811367213726
2020-05-04 08:36:10.212166,43,38.0074,29.6384,17.372792767149825,-132.00455257922187,419385.40625,0.5745335283100816,157.30362790646245,73.9155763676368,-0.0019746851176023483,0.025007635354995728,0.01437811367213726
2020-05-04 08:36:12.190840,43,38.0074,29.6384,17.470961368543126,-131.9248715923645,419391.625,348.46829963368043,191.1357851496707,74.74603857825115,-0.0014810138382017612,0.02622159756720066,0.01657138578593731
2020-05-04 08:36:14.901591,44,38.6047,29.7333,17.5690906963487,-131.84509498285874,419397.9375,335.2580888165667,244.14176873187813,64.0596816972001,-0.002715192036703229,0.02355087921023369,0.015109204687178135
2020-05-04 08:36:16.861401,44,38.6047,29.7333,17.667180750566544,-131.76522275070462,419404.34375,334.66699741560467,287.3863328202485,50.135535111807044,-0.0017278495943173766,0.025007635354995728,0.016083991155028343
2020-05-04 08:36:18.820960,44,38.6047,29.7333,17.765233238743956,-131.68525489590212,419410.8125,342.599208579895,326.5581404839049,39.71265960817842,-0.0019746851176023483,0.025978805497288704,0.015352901071310043
2020-05-04 08:36:20.781814,44,38.6047,29.7333,17.863244745786346,-131.6051777580729,419417.40625,354.1540231601395,1.3929456844029329,36.83230736348151,-0.0014810138382017612,0.025978805497288704,0.014621810987591743
2020-05-04 08:36:22.741261,44,38.6047,29.7333,17.96121697924101,-131.52501865797362,419424.0625,5.111555199826163,34.29225904889673,40.69032605578487,-0.002221520757302642,0.02622159756720066,0.015596598386764526
2020-05-04 08:36:24.701297,44,38.6047,29.7333,18.059149939107943,-131.44475027484762,419430.8125,11.900226638082168,67.34435382000508,49.84324399646552,-0.0007405069191008806,0.025736013427376747,0.013890719972550869
2020-05-04 08:36:27.465963,45,38.4675,29.6384,18.20597339305383,-131.3241701152402,419441.09375,11.300119387415679,112.32946867494812,64.62240049234994,-0.0024683563970029354,0.023793673142790794,0.015352901071310043
2020-05-04 08:36:29.427721,45,38.4675,29.6384,18.303803900083214,-131.24365584530412,419448.0625,4.707048345289559,141.92835299038683,72.7433588117117,-0.0009873425588011742,0.024279257282614708,0.015109204687178135
2020-05-04 08:36:31.390514,45,38.4675,29.6384,18.40159342597758,-131.1630459527196,419455.09375,355.19940666449844,169.27186786075234,76.78749332870873,-0.0019746851176023483,0.025250427424907684,0.014134417288005352
2020-05-04 08:36:33.356282,45,38.4675,29.6384,18.499341970736925,-131.08232677710842,419462.21875,343.24684199435376,202.7662176079901,75.40441417272702,-0.0037025348283350468,0.025007635354995728,0.016083991155028343
2020-05-04 08:36:35.318584,45,38.4675,29.6384,18.59704953436125,-131.0015119788488,419469.4375,333.8613748954544,245.160710012639,65.36621492315349,-0.004196206107735634,0.02622159756720066,0.015596598386764526
2020-05-04 08:36:37.280114,45,38.4675,29.6384,18.694716116850554,-130.92060155794084,419476.75,333.2898007600456,288.5587552818487,51.042410063760904,-0.0019746851176023483,0.025736013427376747,0.015109204687178135
2020-05-04 08:36:40.031330,46,38.1558,29.6763,18.841134882088117,-130.79902419071462,419487.84375,344.9908420064573,340.07824210630395,38.55541724200857,-0.0009873425588011742,0.02694997750222683,0.016815081238746643
2020-05-04 08:36:41.991405,46,38.1558,29.6763,18.889919508234936,-130.7584392066664,419491.59375,356.83037067437624,14.005927001646556,38.29255741180063,-0.0014810138382017612,0.026707183569669724,0.015352901071310043
2020-05-04 08:36:43.951774,46,38.1558,29.6763,18.987458024677302,-130.6772145970566,419499.15625,6.784332560585755,46.606140726135095,44.307484957196905,-0.003949370235204697,0.026707183569669724,0.013159629888832569
2020-05-04 08:36:45.919076,46,38.1558,29.6763,19.084953852437355,-130.5958807044201,419506.78125,11.317323780161294,79.31846773698116,54.270897050453364,-0.0014810138382017612,0.025736013427376747,0.013403326272964478
2020-05-04 08:36:47.880340,46,38.1558,29.6763,19.182405283967807,-130.51443752875687,419514.5,9.88111343639968,111.03513416685237,65.10098501730356,-0.0024683563970029354,0.025250427424907684,0.013403326272964478
2020-05-04 08:36:49.841885,46,38.1558,29.6763,19.27981402681594,-130.43288507006693,419522.3125,3.7346355938153133,140.1709179961859,73.54383649186968,-0.0017278495943173766,0.025250427424907684,0.015352901071310043
2020-05-04 08:36:52.587141,47,38.3636,29.7143,19.425845178818108,-130.31035147635689,419534.1875,348.1067930888373,185.0230663708328,78.53896556776428,-0.0014810138382017612,0.025736013427376747,0.012428538873791695
2020-05-04 08:36:54.556366,47,38.3636,29.7143,19.52314293109223,-130.22853947047847,419542.1875,336.00129706808144,226.4399264788211,72.34162757529906,-0.0017278495943173766,0.025250427424907684,0.013890719972550869
