Date;time;magx;magy;magz;lat;long;gpitch;groll;gyaw
09/04/2020;22:20:13;25,6005872;-49,72775916;2,114509583;3,295508146;4,161133289;5,559029067;23,10106069;331,4204343
09/04/2020;22:20:16;25,45977773;-49,5925419;4,932543755;8,298739433;9,894227028;19,60797559;70,85733185;5,739037422
09/04/2020;22:20:19;25,31882311;-49,45767299;6,519629955;11,44188404;13,58810139;3,763494851;117,7543054;38,85561772
09/04/2020;22:20:22;25,17772165;-49,323149;7,453022003;13,16444874;15,77670479;331,0489113;154,1450069;53,34994166
09/04/2020;22:20:26;25,03647675;-49,1889631;7,959044456;14,36124992;17,70418358;297,2937544;207,9496345;34,88983571
09/04/2020;22:20:29;24,89508842;-49,05511871;8,057486534;15,32168198;18,70471382;305,0777488;311,6859978;323,2944541
09/04/2020;22:20:32;24,75355836;-48,92160901;8,193227768;16,00318718;19,26190758;340,8902338;354,8824236;318,4904781
09/04/2020;22:20:35;24,61188658;-48,78843398;8,275637627;16,34417343;19,43831062;10,64129556;33,32606049;338,8575405
09/04/2020;22:20:38;24,42277401;-48,61138181;8,826368332;16,41497421;19,69198799;17,84791097;82,05978465;15,08982253
09/04/2020;22:20:41;24,2807795;-48,47897518;8,461874008;16,37551117;20,01873207;356,5744006;125,8439132;44,83868584
09/04/2020;22:20:44;24,13864839;-48,3468964;8,160779953;16,52194595;20,42435455;322,0530911;162,7322486;54,65088438
09/04/2020;22:20:47;23,99638238;-48,21513522;8,158991814;16,48825073;19,8112278;293,0483274;232,752961;17,76924256
09/04/2020;22:20:51;23,85397976;-48,08369847;8,320577621;16,72586823;20,12186813;313,1142655;324,3708407;318,4157832
09/04/2020;22:20:54;23,71144737;-47,95257592;7,940384388;16,86641121;20,12685966;349,0606674;3,346136355;321,7572073
09/04/2020;22:20:57;23,56878009;-47,82177096;7,696747303;16,66230965;20,09212112;15,39393329;44,08209896;346,7588886
09/04/2020;22:21:00;23,42598474;-47,69127679;7,234531403;16,65778732;20,09358788;15,10608009;94,45120947;24,08113819
09/04/2020;22:21:03;23,23538831;-47,51776607;7,340909958;16,7220211;20,18830109;349,0564865;135,5332469;49,11768325
09/04/2020;22:21:06;23,09229243;-47,38799248;7,440777302;16,76464272;20,33851242;312,6990719;174,0085494;52,46370413
09/04/2020;22:21:09;22,94906849;-47,25852283;7,326016426;16,65847588;20,32598495;292,9782019;265,961976;352,7726396
09/04/2020;22:21:13;22,80571989;-47,12935371;7,263733864;16,51617432;20,25576401;322,8462981;336,6949625;316,5548913
09/04/2020;22:21:16;22,66224665;-47,00048511;6,86081028;16,27206039;20,37718964;357,7506452;13,23366825;326,9106022
09/04/2020;22:21:19;22,51865046;-46,87191022;6,61562252;16,20142555;20,41548157;18,69693422;57,53856542;356,9503003
09/04/2020;22:21:22;22,37493303;-46,74363243;6,528603554;16,35934639;20,39534569;10,06701326;106,823018;33,18161906
09/04/2020;22:21:25;22,18312083;-46,57304846;6,43158865;16,47119331;20,37197304;339,9230739;144,9320653;52,45441166
09/04/2020;22:21:28;22,03912166;-46,44544687;6,441061497;16,65802002;20,29527092;304,4770473;188,681384;46,27272846
09/04/2020;22:21:31;21,89500467;-46,31813214;6,134660721;16,86881828;20,27670479;297,9771763;293,160848;333,7980283
09/04/2020;22:21:34;21,75076986;-46,19110087;5,917804241;16,87694359;20,89957809;332,5513993;346,0244178;316,7030996
09/04/2020;22:21:38;21,60641893;-46,06435305;5,955438614;17,09716034;20,55988121;5,160800437;23,09847888;332,6341743
09/04/2020;22:21:41;21,4619536;-45,93788185;5,784002304;17,07772064;20,27493286;19,3627035;70,70578361;6,201128747
09/04/2020;22:21:44;21,31737386;-45,81168727;5,464819431;16,88480377;20,02838707;3,779534696;118,3131105;39,39379223
09/04/2020;22:21:47;21,17268143;-45,68576932;5,249230385;16,9515419;20,01137924;330,2319353;154,9851612;53,45803282
09/04/2020;22:21:50;20,97958515;-45,5182965;4,916719913;16,98246765;19,98747826;296,6217048;212,1717706;31,92760316
09/04/2020;22:21:53;20,83463317;-45,39300692;4,772838116;16,97392273;20,42524338;307,0307594;313,8201211;322,0216962
09/04/2020;22:21:56;20,6895719;-45,26798714;4,642474174;16,88599014;20,22032928;342,8557573;355,8074199;318,7245487
09/04/2020;22:21:59;20,54440306;-45,1432269;4,464478493;16,83065224;20,22821426;12,23149594;34,8536323;339,9220937
09/04/2020;22:22:03;20,39912664;-45,01872963;4,293223381;16,87811089;20,30901527;18,34807719;84,98103607;17,03796323
09/04/2020;22:22:06;20,25374265;-44,89449191;4,062328339;16,95657921;19,59958458;356,0488645;128,1321085;45,27369376
09/04/2020;22:22:09;20,1082545;-44,77051373;3,899248362;17,08662224;19,64198875;320,9748911;164,6448245;53,67558801
09/04/2020;22:22:12;19,9626639;-44,64678826;3,602248669;17,31199646;20,16270065;292,7298494;238,4589694;13,39440992
09/04/2020;22:22:15;19,76838087;-44,48221486;3,335469246;17,51157379;19,7332077;314,8084837;326,8224415;317,9785964
09/04/2020;22:22:18;19,6225495;-44,35907679;3,141387463;17,40496254;19,53673363;350,0240502;4,447639041;322,1045225
09/04/2020;22:22:21;19,47661739;-44,23618461;2,895141363;17,30333519;19,48435402;15,62622802;45,5757862;347,8710833
09/04/2020;22:22:25;19,33058624;-44,11353491;2,860883713;17,18727112;20,41885185;14,58963582;95,75940243;25,12882262
09/04/2020;22:22:28;19,18445605;-43,99113109;2,971694469;17,34638596;20,37099457;347,4729106;136,5795772;49,49419059
09/04/2020;22:22:31;19,03822853;-43,86896974;2,842288256;17,3776226;20,78036308;311,4661067;175,409913;51,70844572
09/04/2020;22:22:34;18,89190368;-43,74704403;2,613758326;17,37184715;20,94817734;292,97534;269,9647947;349,1638852
09/04/2020;22:22:37;18,69665418;-43,58484411;2,430955172;17,23512459;20,87321472;323,4522861;337,8950046;315,5163474
09/04/2020;22:22:40;18,55010906;-43,46346482;2,372752905;16,98474503;20,73654938;358,1262492;14,35854662;326,3771815
09/04/2020;22:22:43;18,40346831;-43,34231776;2,085755348;16,69882965;20,54734612;18,00064937;59,04325609;356,8904469
09/04/2020;22:22:46;18,25673536;-43,2213995;2,059764624;16,85449028;20,61008072;9,055376863;107,2974293;32,66723752
09/04/2020;22:22:50;18,10991191;-43,10071006;1,872514963;16,83128548;20,71358681;338,5042984;144,655306;52,06857427
09/04/2020;22:22:53;17,96299624;-42,9802426;1,7124511;16,75974083;20,71451759;302,8066153;188,4486931;46,29055184
09/04/2020;22:22:56;17,81599179;-42,85999712;1,419419527;16,9503727;20,60494614;297,5624336;296,3202886;330,7904228
09/04/2020;22:22:59;17,66889854;-42,73997362;1,158817172;17,1089077;20,36468697;332,159635;347,6992878;316,1379629
09/04/2020;22:23:02;17,47263818;-42,58027697;1,03868556;16,91020584;20,46978188;4,715448197;24,12953691;332,3777963
09/04/2020;22:23:05;17,32534174;-42,4607589;1,690712929;16,94186783;20,42418289;18,1436206;71,0973925;6,517004506
09/04/2020;22:23:08;17,17795991;-42,34145257;1,436954618;16,89442635;20,29220581;2,737146443;116,936199;39,48426833
09/04/2020;22:23:11;17,03049271;-42,22235456;0,953929782;17,01765251;20,51931381;329,7700608;153,1567742;54,40644215
09/04/2020;22:23:15;16,88294355;-42,10346829;0,620551527;17,24685097;20,27840233;295,7281931;208,2841225;35,09369979
09/04/2020;22:23:18;16,73530901;-41,98478692;0,08105091;17,40597534;20,18519592;304,7443331;313,1753342;321,9518575
09/04/2020;22:23:21;16,58759422;-41,86631046;-0,224791616;17,29750443;20,15643692;340,7263861;355,7489419;318,4367894
09/04/2020;22:23:24;16,43979746;-41,74803549;-0,429011256;17,14286995;20,03502846;9,96648141;34,13457047;339,4957926
09/04/2020;22:23:27;16,24261161;-41,59064744;-0,625324428;17,22315979;20,24704933;16,59156598;83,54239332;16,2197134
09/04/2020;22:23:30;16,09463044;-41,47283692;-0,850578308;17,26622772;20,26117897;355,0787198;126,577899;45,22106374
09/04/2020;22:23:33;15,94657072;-41,35522107;-0,974288225;17,40301514;20,20842552;319,9496627;163,0474482;54,88470908
09/04/2020;22:23:36;15,79843246;-41,23779987;-1,032715321;17,4256897;19,91726494;291,2301242;238,8821542;13,01705819
09/04/2020;22:23:40;15,65022077;-41,12056992;-1,268743277;17,42917442;19,85494423;314,4811298;328,9679781;316,6780499
09/04/2020;22:23:43;15,50193053;-41,0035278;-1,388783336;17,35313416;20,19196892;349,9207564;6,205973059;322,6202905
09/04/2020;22:23:46;15,35356857;-40,8866735;-1,402794957;17,18650627;20,35402489;14,90412164;47,34157451;349,2471205
09/04/2020;22:23:49;15,15563652;-40,73115693;-1,388863802;17,11536598;20,53247452;13,03859634;96,63855023;26,39597468
09/04/2020;22:23:52;15,00710211;-40,61472952;-1,479659438;17,02115822;20,45707321;345,9263158;137,2672133;50,67160934
09/04/2020;22:23:55;14,85849768;-40,49848653;-1,946912289;16,81923485;20,38360405;309,7224379;176,1798529;52,5993107
09/04/2020;22:23:58;14,70982154;-40,38241771;-2,208894968;16,75676727;20,44020844;292,8677236;275,101336;346,6599797
09/04/2020;22:24:02;14,56107539;-40,26652648;-2,304069042;16,81151199;20,48529816;325,2862671;341,1094094;316,2789927
09/04/2020;22:24:05;14,41226093;-40,15080941;-2,38466835;17,01464462;20,55472565;359,322809;17,21286047;329,1090078
09/04/2020;22:24:08;14,26337732;-40,03526652;-2,557846546;17,22024536;20,77861404;17,87526588;61,84316237;0,46524698
09/04/2020;22:24:11;14,11442626;-39,91989438;-2,703059196;17,35492706;20,4502182;6,854675825;110,1835598;36,04483778
09/04/2020;22:24:14;13,9157224;-39,76632099;-3,008083105;17,43393707;20,27943039;335,2878036;147,3721367;54,02731543
09/04/2020;22:24:17;13,76661766;-39,65133817;-3,228824377;17,3905983;20,40361595;299,676343;195,1417048;44,07018028
09/04/2020;22:24:20;13,61744889;-39,53651927;-3,380042791;17,55600739;20,75838661;299,780237;304,4184443;326,9460372
09/04/2020;22:24:23;13,46821609;-39,42185747;-3,670138359;17,70503235;20,33294487;335,0676324;351,1217095;317,6155787
09/04/2020;22:24:27;13,31892011;-39,3073596;-3,719749689;17,57672691;20,31491852;6,639178661;27,82557084;335,8798273
09/04/2020;22:24:30;13,1695618;-39,19301882;-3,965702534;17,26321411;20,68857956;17,64557003;75,14882166;10,76269705
09/04/2020;22:24:33;13,02014202;-39,07883171;-3,977195263;16,90667343;21,0840683;359,804564;120,3898842;42,79602215
09/04/2020;22:24:36;12,87066248;-38,96480171;-4,295456409;16,92254639;21,1447258;326,0172749;156,7138821;55,64057196
09/04/2020;22:24:39;12,67126364;-38,81299734;-4,412788391;17,13818169;21,03268433;293,2828556;218,5026729;28,53439763
09/04/2020;22:24:42;12,52164493;-38,69931567;-4,634543419;17,16559029;20,96695328;308,2557675;320,525311;319,0087631
09/04/2020;22:24:45;12,37196987;-38,58578426;-4,713074207;17,21694183;20,99215126;344,2779154;0,280821493;319,9016396
09/04/2020;22:24:48;12,22223676;-38,47239629;-5,499348164;17,28335762;21,26720238;12,04050421;39,2940339;342,7066031
09/04/2020;22:24:52;12,0724473;-38,35915517;-5,597303867;17,11323738;21,23583031;15,76090398;88,68053973;19,76972984
09/04/2020;22:24:55;11,92260319;-38,24605065;-5,731016159;17,0652256;21,18483353;351,9515826;130,7219933;47,29987621
09/04/2020;22:24:58;11,77270444;-38,13308957;-5,749406815;17,01570892;21,08139992;316,681967;167,3057569;54,49160778
09/04/2020;22:25:01;11,57275493;-37,9826888;-5,91912508;17,2493248;20,88748169;291,3529515;249,9541231;5,234512265
09/04/2020;22:25:04;11,42273153;-37,87004532;-6,135642529;17,44055557;20,53897476;317,4928061;331,9297906;316,7607805
09/04/2020;22:25:07;11,27265605;-37,75753845;-6,183080196;17,57865906;20,2726078;352,7668715;8,424023204;324,0666924
09/04/2020;22:25:10;11,12252849;-37,64516135;-6,160022736;17,41635513;20,3672657;15,86677704;50,86519398;351,604556
09/04/2020;22:25:14;10,97235142;-37,5329106;-6,438192368;17,05714035;20,54395294;11,56042985;100,3013006;28,84500902
09/04/2020;22:25:17;10,82212397;-37,42079305;-6,588532448;17,04862785;20,73705292;343,6687769;139,3368426;51,60876593
09/04/2020;22:25:20;10,67184785;-37,30879844;-6,838760853;17,12878609;20,87213516;307,5647095;179,1923898;51,3568788
09/04/2020;22:25:23;10,52152393;-37,19693018;-6,970636368;17,08767509;20,82370377;293,5718409;282,1282893;340,9436903
09/04/2020;22:25:26;10,32101775;-37,04796034;-7,348829269;16,89775276;21,13578987;326,0686379;342,0354038;315,7537272
09/04/2020;22:25:29;10,17058368;-36,93637213;-7,423605919;16,85050011;21,30827713;359,7718723;18,12849173;329,039999
09/04/2020;22:25:32;10,02010437;-36,82490344;-7,363948822;16,86865425;21,30192375;17,47404861;63,00274407;1,181736385
09/04/2020;22:25:35;9,869579808;-36,71355086;-7,427969933;16,76689339;21,26518631;6,323990617;110,3870517;36,02617087
09/04/2020;22:25:39;9,719011703;-36,60231099;-7,528170586;16,7645359;21,26790047;334,8143502;147,4184454;54,14134544
09/04/2020;22:25:42;9,568399202;-36,49118381;-7,753993034;16,82326698;21,49966049;299,5734394;194,7527801;44,12350698
09/04/2020;22:25:45;9,417744865;-36,38016933;-7,892488956;16,82116508;21,69761467;300,0160903;305,1314785;325,775131
09/04/2020;22:25:48;9,267048694;-36,26926072;-8,119885445;16,74528694;21,79351616;335,441213;351,3726523;316,6902691
09/04/2020;22:25:51;9,066055864;-36,12155446;-7,915669918;16,75022125;21,86554718;7,072339013;28,20677565;335,4626069
09/04/2020;22:25:54;8,91526407;-36,01089174;-8,077323914;16,60572243;21,83005714;17,93688785;76,17669;10,7412494
09/04/2020;22:25:57;8,764433002;-35,90033488;-8,159219742;16,43640518;21,76943588;359,5563099;121,5124394;42,30692938
09/04/2020;22:26:00;8,613563515;-35,78988048;-8,623879433;16,50046921;21,48801804;325,7077819;157,7708402;54,57718322
09/04/2020;22:26:04;8,462655608;-35,6795217;-9,080690384;16,58942223;21,4924736;293,5635081;220,1015382;27,05126815
09/04/2020;22:26:07;8,311710989;-35,56926537;-9,222166061;16,57744217;21,56577301;308,9678933;320,1483426;319,3776104
09/04/2020;22:26:10;8,160729657;-35,45910125;-9,486397743;16,59918404;21,66486168;345,1790359;359,4522939;319,9406844
09/04/2020;22:26:13;8,009711613;-35,34902933;-9,586339951;16,68013382;21,95737267;13,37107372;39,32399794;342,8658609
09/04/2020;22:26:16;7,808301287;-35,20241249;-9,594379425;16,76572609;22,25447083;16,50824791;89,4463542;20,26294975
09/04/2020;22:26:19;7,657202989;-35,09255573;-9,796204567;16,87103081;22,33875656;352,175378;131,1236767;47,19986517
09/04/2020;22:26:22;7,506071393;-34,98278434;-10,01551533;16,97541046;22,1565609;316,4408886;168,2222727;53,80478104
09/04/2020;22:26:25;7,354907354;-34,87310175;-10,2287569;17,12819481;22,27631187;291,6806777;251,7293439;3,227862665
09/04/2020;22:26:29;7,203710871;-34,76350112;-10,50457764;16,91881752;22,10643005;318,091158;332,3750421;316,0344138
09/04/2020;22:26:32;7,05248408;-34,65398245;-10,56700802;16,9017067;21,93262672;353,4139645;9,263087184;323,8273694
09/04/2020;22:26:35;6,901226126;-34,54454575;-10,60592461;16,9533596;21,98083878;16,34985241;52,12050761;352,1120561
09/04/2020;22:26:38;6,749938289;-34,43518759;-10,83597469;16,74847031;22,28608131;11,32359816;101,359454;28,87705626
09/04/2020;22:26:41;6,548175782;-34,28949965;-10,88828182;16,57613945;22,60146904;342,8095665;140,1496215;51,05627193
09/04/2020;22:26:44;6,396821351;-34,18031908;-11,01617908;16,49628639;22,51825333;306,3694127;181,6183537;49,41283963
09/04/2020;22:26:47;6,245439173;-34,07121022;-11,36451912;16,45834923;22,73635101;294,7639138;286,4739288;336,4626541
09/04/2020;22:26:50;6,094030101;-33,9621765;-11,35070515;16,5434227;22,48763466;327,9260737;343,8436007;314,3381295
09/04/2020;22:26:54;5,942594988;-33,85321107;-11,50801849;16,50015259;22,27083588;1,319130229;20,08263617;328,5885269
09/04/2020;22:26:57;5,79113469;-33,74431054;-12,40547848;16,43012619;22,43086052;17,85363467;65,3687216;1,036986107
09/04/2020;22:27:00;5,639649632;-33,63548172;-12,53869343;16,56220818;22,66471481;5,181495056;112,4943904;35,85440869
09/04/2020;22:27:03;5,4376327;-33,49046997;-12,61095238;16,5469532;22,58596992;333,2128484;149,5752689;53,00130149
09/04/2020;22:27:06;5,286092573;-33,381788;-12,48836231;16,57071877;22,56343651;298,2405826;199,1803273;40,08307784
09/04/2020;22:27:09;5,134530249;-33,27316409;-12,70138836;16,34206772;22,59149933;301,8576937;307,6680502;323,9709263
09/04/2020;22:27:12;4,982946153;-33,16459823;-12,8575592;16,5225544;22,351717;338,3286208;353,5232159;316,7694139
09/04/2020;22:27:16;4,831341566;-33,05609043;-12,95741177;16,66958809;22,57071686;8,608547595;31,22549387;336,1706584
09/04/2020;22:27:19;4,679716063;-32,94763727;-13,06524181;16,40608788;23,01557541;17,27523718;79,78471694;12,08907454
09/04/2020;22:27:22;4,528071349;-32,83923876;-13,26377392;16,25013542;23,08781433;357,4438333;123,6132007;42,52532468
09/04/2020;22:27:25;4,376407852;-32,73088805;-13,59393883;16,4118557;22,98161697;322,8588861;159,509014;53,4532995
09/04/2020;22:27:28;4,174161255;-32,58650468;-13,73620319;16,50249481;23,10233879;291,6782256;227,5457204;19,78608302
09/04/2020;22:27:31;4,022455923;-32,47827009;-13,91882515;16,39174652;23,14627266;310,9646444;325,0056556;315,628441
09/04/2020;22:27:34;3,87073437;-32,37008331;-14,13429356;16,34368324;23,18426704;346,6906481;3,232511676;319,1058543
09/04/2020;22:27:37;3,718996595;-32,26193751;-14,29081249;16,29444504;23,07629395;12,61943702;43,62048404;344,1431865
09/04/2020;22:27:41;3,567243666;-32,1538361;-14,55145454;16,15036774;23,34657288;13,56482997;92,51343016;21,30080895
09/04/2020;22:27:44;3,415476222;-32,0457791;-14,6187706;15,97836399;23,70538521;347,9566348;132,8213203;47,02158357
09/04/2020;22:27:47;3,263694691;-31,93775624;-14,76815605;16,07467461;24,02522278;312,2587331;169,6030637;52,56738298
09/04/2020;22:27:50;3,11190014;-31,82977436;-15,18289757;15,53436661;23,93387604;290,171322;263,9261903;352,2046402
09/04/2020;22:27:53;2,909487911;-31,68585203;-15,29919243;15,67691898;23,80240631;320,358388;337,5867957;312,9616654
09/04/2020;22:27:56;2,757665185;-31,5779487;-15,2983923;15,73754597;23,78547287;355,299737;13,17048046;323,5562621
09/04/2020;22:27:59;2,605831574;-31,47007611;-15,28321934;15,91080666;23,96046829;15,86348147;56,16682438;353,2933971
09/04/2020;22:28:02;2,453987504;-31,36223767;-15,50465965;15,94530392;23,98391724;8,83327704;103,9170798;29,20340953
09/04/2020;22:28:06;2,302133829;-31,25442313;-14,98924732;16,02819252;23,84669495;339,5661367;141,8009563;50,46358568
09/04/2020;22:28:09;2,150271403;-31,14663933;-15,20535469;16,14403343;23,87596703;303,7893463;183,9923225;47,39845975
09/04/2020;22:28:12;1,998400653;-31,03887944;-15,52464008;16,22919655;24,09301186;295,7575971;294,9238154;329,8041537
09/04/2020;22:28:15;1,795894722;-30,89523373;-15,6874876;16,12062645;24,28654099;330,1471761;347,1984949;313,9636985
09/04/2020;22:28:18;1,64400743;-30,78752506;-15,76580811;15,28226948;23,99006081;2,660767426;23,14194279;329,9935617
09/04/2020;22:28:21;1,492114055;-30,67983347;-16,28255844;15,41712189;23,91672325;16,74389285;69,73892935;3,447151864
09/04/2020;22:28:24;1,34021545;-30,57216237;-16,54215622;15,64299774;23,96106529;2,415681029;115,7642342;37,0079286
09/04/2020;22:28:28;1,18831215;-30,46450834;-16,64465141;15,82673645;24,14100838;329,5940196;151,8248053;52,68824318
09/04/2020;22:28:31;1,036404901;-30,35686456;-16,85822296;15,80871487;24,33880424;295,2891486;205,0916102;35,13213668
09/04/2020;22:28:34;0,884494343;-30,24923444;-16,94322014;15,56671238;24,39800453;303,4946817;314,5783814;318,5231094
09/04/2020;22:28:37;0,732581171;-30,14161798;-17,0263958;15,31376743;24,57198906;339,4651814;356,2416129;315,3125619
09/04/2020;22:28:40;0,530027322;-29,99813961;-17,25075531;15,14275169;24,79358864;8,91494049;34,03970256;336,5188649
09/04/2020;22:28:43;0,378110628;-29,89054022;-17,55744934;15,17818642;24,77529526;16,33351972;81,63824587;12,38865432
09/04/2020;22:28:46;0,226193534;-29,78294425;-17,67990112;15,28847408;24,51709175;355,431803;125,4161248;42,25933321
09/04/2020;22:28:49;0,074276706;-29,67535511;-17,84952354;15,40871906;24,75496483;320,7559187;161,4353733;52,74569532
09/04/2020;22:28:53;-0,077639161;-29,56776597;-18,0491333;15,40430355;25,04043579;291,5838529;234,5557212;14,29604612
09/04/2020;22:28:56;-0,2295534;-29,46017683;-18,08412743;15,35173988;25,19912148;312,8835041;326,7783594;315,275795
09/04/2020;22:28:59;-0,381465318;-29,35258769;-18,13131714;15,37189293;25,15334702;348,55763;4,68033078;319,9033267
09/04/2020;22:29:02;-0,584009882;-29,2091264;-18,29340172;15,20917892;24,94631767;14,13847707;45,35479201;345,4422031
09/04/2020;22:29:05;-0,735913823;-29,10152702;-18,36868668;15,10207653;24,90948105;13,75827459;94,71997058;22,69773631
09/04/2020;22:29:08;-0,887813281;-28,99391739;-18,47716522;14,93624687;24,91864014;347,4128382;135,3455806;47,67784863
09/04/2020;22:29:11;-1,03970751;-28,88630092;-18,35135651;14,88572979;24,97563553;311,3594328;173,7149606;51,25324434
09/04/2020;22:29:15;-1,19159587;-28,77867422;-17,94630814;15,23902702;25,25609779;291,5425507;269,4883139;348,2309839
09/04/2020;22:29:18;-1,343477719;-28,67103727;-18,32573128;15,3019352;25,80720901;322,3243316;338,4971865;313,9082477
09/04/2020;22:29:21;-1,495352311;-28,56338153;-18,75025558;15,24271488;26,01713181;356,8068193;14,49638325;325,3155515
09/04/2020;22:29:24;-1,647219006;-28,45571385;-19,52186012;15,21657944;25,79110527;17,06557257;58,1559872;355,7939358
09/04/2020;22:29:27;-1,849694628;-28,3121279;-19,53671455;15,01761436;25,83320808;8,779336475;105,9362682;32,05144474
09/04/2020;22:29:30;-2,001540406;-28,20441582;-19,46550369;14,86150265;25,67547226;339,0856568;142,9649571;52,17254341
09/04/2020;22:29:33;-2,153375938;-28,09668154;-19,74627686;14,84823322;25,69506836;303,2279901;185,7783487;48,23261709
09/04/2020;22:29:36;-2,305200584;-27,98892506;-19,77466965;14,7597456;25,71648598;295,9897279;295,0075603;331,2299045
09/04/2020;22:29:40;-2,457013918;-27,88114467;-19,80717659;14,73410416;25,61798286;330,741867;346,9128905;314,970786
09/04/2020;22:29:43;-2,608815086;-27,77333697;-20,06713295;14,78243256;25,78725815;3,504408486;22,962442;331,0838648
09/04/2020;22:29:46;-2,760603447;-27,66550194;-20,22255516;14,6731596;25,98669434;17,99564284;69,44385835;5,057631283
09/04/2020;22:29:49;-2,912378148;-27,55763618;-20,19246101;14,64491081;26,23871994;2,933782467;116,1202237;38,4873305
09/04/2020;22:29:52;-3,114722502;-27,41376678;-20,18816948;14,67596722;26,25487518;330,0414994;152,5230965;53,88971785
09/04/2020;22:29:55;-3,266463052;-27,30582589;-20,37753677;14,65032768;26,21397972;296,0364805;206,9113228;35,38279437
09/04/2020;22:29:58;-3,41818802;-27,19784913;-20,55455399;14,51676464;26,42741776;304,9270065;313,6733199;320,807169
09/04/2020;22:30:02;-3,569896554;-27,08983481;-20,69155502;14,56061935;26,76446724;341,7357907;356,747414;317,5788016
09/04/2020;22:30:05;-3,721587798;-26,98178122;-20,82547569;14,35961914;26,5585289;10,9373484;36,24955562;339,605605
09/04/2020;22:30:08;-3,87326154;-26,87368836;-21,03163528;14,26944828;26,57876778;16,30150662;85,54286694;16,21501594
09/04/2020;22:30:11;-4,075463741;-26,72949794;-21,06280899;14,39238834;26,74440956;353,6321024;128,7070465;44,46258148
09/04/2020;22:30:14;-4,227093087;-26,62130433;-21,19695854;14,59941196;26,70661736;318,3573441;165,5378581;52,49566941
09/04/2020;22:30:17;-4,378702796;-26,51306291;-21,32326889;14,56551266;27,09887123;291,3886393;245,3069307;6,194237087
09/04/2020;22:30:20;-4,53029116;-26,40477367;-21,55147743;14,38693428;27,02116394;316,1529381;329,9748026;313,8830989
09/04/2020;22:30:24;-4,681858181;-26,29643492;-21,36527824;14,27894878;27,01670837;351,9567658;6,969104546;320,0021697
09/04/2020;22:30:27;-4,83340343;-26,18804494;-21,48794174;14,06621838;27,20921898;16,12479085;48,83636141;346,8563741
09/04/2020;22:30:30;-4,984925627;-26,07960202;-21,59416962;13,84565449;27,06299973;13,21172541;98,65702822;24,03090215
09/04/2020;22:30:33;-5,136424345;-25,97110447;-21,49880219;13,74394035;27,29340553;345,6489683;138,6850103;47,33008955
09/04/2020;22:30:36;-5,338384928;-25,82635227;-21,59536934;13,72266674;27,49503136;309,5192193;178,2951078;48,07860657
09/04/2020;22:30:39;-5,489826017;-25,71771982;-21,67375374;13,72055244;27,62739182;293,795516;276,439814;341,9754313
09/04/2020;22:30:42;-5,641241493;-25,6090276;-21,79778862;13,78421497;27,80861092;325,4264908;339,5663946;313,2798942
09/04/2020;22:30:45;-5,792630074;-25,5002705;-21,80732727;13,90800667;27,71408081;359,8977482;16,01634964;325,0222563
09/04/2020;22:30:49;-5,943991762;-25,39145193;-21,8091526;14,05901909;28,10655403;18,71924333;61,15872277;356,249109
09/04/2020;22:30:52;-6,095325702;-25,28256676;-21,93509483;13,98392963;28,35026932;8,38442006;109,7003035;31,70746958
09/04/2020;22:30:55;-6,246631041;-25,17361329;-21,87478638;13,94774151;28,38110542;337,0532452;146,959525;49,9728161
09/04/2020;22:30:58;-6,397906924;-25,06459152;-22,09802628;13,98511887;28,27904701;301,6814406;193,3079492;41,00056349
09/04/2020;22:31:01;-6,599561856;-24,91911703;-22,23089218;13,89679718;28,37891769;299,8428971;300,4698949;325,9426414
09/04/2020;22:31:04;-6,750766877;-24,80992621;-23,0457325;13,88431644;28,56045532;335,0926838;349,3004831;314,3548225
09/04/2020;22:31:07;-6,90193988;-24,70066026;-22,94839478;13,84054089;28,59672165;6,671297626;26,25989341;331,5142145
09/04/2020;22:31:11;-7,053081295;-24,59131747;-22,25411987;13,70431042;28,9334507;19,18742547;73,80962647;6,395045929
09/04/2020;22:31:14;-7,204188985;-24,48189783;-23,09342384;13,71885872;29,24871063;1,85149481;120,1219359;39,16354313
09/04/2020;22:31:17;-7,355263378;-24,37239453;-23,0486145;13,5699873;29,39508438;328,0897592;156,4065099;52,18458162
09/04/2020;22:31:20;-7,50630362;-24,26281098;-23,69138336;13,65029621;29,4402256;295,6070734;215,0455727;28,24808634
09/04/2020;22:31:23;-7,707635398;-24,1165698;-22,92644501;13,54543114;29,28279877;307,8031719;315,3764241;319,9788003
09/04/2020;22:31:26;-7,85859197;-24,00678646;-23,07183838;13,27247334;29,1147728;343,9101131;356,8638147;317,2881941
09/04/2020;22:31:29;-8,00951183;-23,89691604;-23,35310364;12,96969318;29,03212738;12,63641772;36,16849835;338,9492887
09/04/2020;22:31:32;-8,160394124;-23,78695682;-23,42007256;12,92542362;28,94038582;17,85130899;86,3496967;15,89747191
09/04/2020;22:31:36;-8,311237998;-23,67690369;-23,42996407;12,95620155;28,9285984;354,9287877;129,2518497;44,2501865
09/04/2020;22:31:39;-8,462043452;-23,56676006;-23,41399193;13,04571629;29,19901657;319,2162916;166,0329648;52,07860099
09/04/2020;22:31:42;-8,612808779;-23,4565191;-23,74222946;13,23478794;29,16982841;292,0039164;244,2932623;7,206756282
09/04/2020;22:31:45;-8,763533979;-23,34618252;-23,82800102;13,29433727;29,4852829;316,1893737;328,9271335;315,0676279
09/04/2020;22:31:48;-8,964437163;-23,19891169;-23,91146278;13,08302307;29,56659698;351,8783903;6,440014187;321,0397096
09/04/2020;22:31:51;-9,115065032;-23,08834117;-23,82708168;13,07445621;29,55898666;16,59569482;48,13478829;348,0204202
09/04/2020;22:31:54;-9,265650213;-22,9776682;-23,88537788;13,0435276;29,92385483;13,92883636;98,425799;25,09896274
09/04/2020;22:31:57;-9,416191851;-22,86688936;-23,97248268;13,03349781;29,78826523;346,1769411;138,3623385;48,51647292
09/04/2020;22:32:01;-9,566689093;-22,75600465;-23,94896889;12,78418636;29,8757267;310,548884;178,5025817;48,86378462
09/04/2020;22:32:04;-9,717141085;-22,64501237;-24,12195587;12,66243553;29,88729095;294,2418961;274,5048488;344,7022904
09/04/2020;22:32:07;-9,867546973;-22,5339091;-24,17866898;12,62560749;29,83895111;325,6209463;339,0347139;314,500688
09/04/2020;22:32:10;-10,01790761;-22,42269313;-24,34936905;12,55213547;29,81053925;359,5713965;15,40290132;325,8866236
09/04/2020;22:32:13;-10,21831305;-22,27422872;-24,49610138;12,53028679;29,84572792;18,63508686;60,80694754;357,0411804
09/04/2020;22:32:16;-10,36856184;-22,16274467;-24,23894501;12,47010994;30,03467369;8,337425797;109,0845892;32,27657119
09/04/2020;22:32:19;-10,51876111;-22,05114279;-24,23455429;12,56513309;30,36741638;337,1793152;146,669201;50,95768157
09/04/2020;22:32:22;-10,66891087;-21,93942139;-24,17843246;12,74040794;30,8551178;301,5252342;192,9634072;42,13958974
09/04/2020;22:32:26;-10,81901025;-21,82757704;-24,34288788;12,84207058;30,77342033;299,456486;299,9386154;326,7602663
09/04/2020;22:32:29;-10,96905756;-21,71560975;-24,28056145;12,86786461;30,60633087;334,533749;349,0675181;314,3324024
09/04/2020;22:32:32;-11,11905363;-21,60351781;-24,40242386;12,82904911;30,56054688;6,307378743;25,9315406;331,1699901
09/04/2020;22:32:35;-11,26899678;-21,4912978;-24,58416367;12,63867664;30,60402489;18,35991732;73,63314122;5,583537493
09/04/2020;22:32:38;-11,46883701;-21,34146906;-24,93055344;12,5191803;30,5908699;1,460495295;119,1180074;37,98318741
09/04/2020;22:32:41;-11,6186538;-21,2289434;-25,10541153;12,54741192;30,76168823;327,6953533;155,1805729;52,04194678
09/04/2020;22:32:44;-11,76841509;-21,11628626;-25,09601212;12,65771103;31,08990669;294,7333078;212,871182;29,11055994
09/04/2020;22:32:48;-11,91812088;-21,00349252;-25,02944946;12,67972183;31,05479622;306,683376;317,6071742;317,3157163
09/04/2020;22:32:51;-12,06776862;-20,89056046;-25,13213921;12,52578545;31,01393509;342,6170764;357,9118763;316,5760888
09/04/2020;22:32:54;-12,21735915;-20,7774901;-25,16780281;12,26879692;31,06416702;10,9701538;37,09327523;338,8185384
09/04/2020;22:32:57;-12,36689163;-20,66427971;-25,37326813;12,14220333;31,0045414;15,99951664;85,34231892;15,32190553
09/04/2020;22:33:00;-12,5661752;-20,51310713;-25,49621391;12,27629471;30,97926712;353,5061302;127,6808652;44,09719368
09/04/2020;22:33:03;-12,71556852;-20,39955865;-25,57295227;12,29638767;31,06731033;318,3213319;163,6954009;52,76158917
09/04/2020;22:33:06;-12,8648995;-20,28586333;-25,73394012;12,29397964;31,11899757;290,2826199;242,307781;8,312277894
09/04/2020;22:33:09;-13,01416902;-20,17201773;-25,79396629;12,25060558;31,35518456;314,9953508;330,680566;313,0427841
09/04/2020;22:33:13;-13,16337621;-20,05802188;-25,92386627;12,2399931;31,49395561;350,6451202;7,500474907;320,0729373
09/04/2020;22:33:16;-13,31251937;-19,94387234;-25,84947395;12,31298637;31,6484127;14,5357388;48,60249915;347,1707695
09/04/2020;22:33:19;-13,46159849;-19,82956742;-25,99066925;12,22507286;31,70401382;11,74899003;97,37192813;24,09090536
09/04/2020;22:33:22;-13,61061273;-19,7151054;-26,08598328;12,20478344;31,79221916;344,3872565;136,9003912;47,60938282
09/04/2020;22:33:25;-13,80919536;-19,56224064;-26,11581993;12,10785961;31,87456131;308,5276705;174,3283389;50,45202217
09/04/2020;22:33:28;-13,95805335;-19,44740467;-25,97152138;11,74990749;31,72724915;291,0726132;276,8568107;340,9660335
09/04/2020;22:33:31;-14,10684475;-19,33240478;-26,72265244;11,71893883;31,66529846;323,5647964;342,0264067;311,1770906
09/04/2020;22:33:34;-14,255567;-19,21723754;-26,74075508;11,75706673;31,85147858;357,2538433;17,32364785;324,4252329
09/04/2020;22:33:38;-14,40422009;-19,10190467;-26,64417648;11,9893961;32,01602554;15,46414763;61,57975612;355,7157583
09/04/2020;22:33:41;-14,55280232;-18,98640105;-26,46568489;11,98291588;31,82144356;5,490954706;107,9144207;30,83379618
09/04/2020;22:33:44;-14,70131283;-18,87072668;-26,59623528;12,06692982;31,67332649;334,8661504;144,5044408;50,56377773
09/04/2020;22:33:47;-14,84975333;-18,75487984;-26,76314926;12,72020912;32,00007248;298,7342618;189,2720041;44,43553734
09/04/2020;22:33:50;-15,04755902;-18,6001419;-26,75378799;12,3721962;32,2903862;297,3296607;304,8496273;322,083243
09/04/2020;22:33:53;-15,19582536;-18,48388013;-26,64537621;12,46305561;31,91737747;332,856357;351,9991027;312,4819949
09/04/2020;22:33:56;-15,34401997;-18,36743907;-26,64970589;12,38267136;32,35168839;4,161222742;28,36876725;331,0710104
09/04/2020;22:33:59;-15,49213604;-18,25081529;-26,70030403;12,21042156;32,55633163;15,61796349;73,93264501;6,041102111
09/04/2020;22:34:03;-15,64017697;-18,13400881;-26,94790268;12,06899071;32,48762894;358,7050686;118,6037624;38,4955199
09/04/2020;22:34:06;-15,78814107;-18,0170145;-27,09562492;12,07204151;32,3881073;325,3452799;153,6427968;53,22265767
09/04/2020;22:34:09;-15,93602662;-17,89983236;-27,17300224;12,0917778;32,32457733;291,9723062;213,5186976;29,58100288
09/04/2020;22:34:12;-16,1330827;-17,74329296;-27,31537819;11,97809601;32,38025284;306,9173134;322,7003335;314,4352992
09/04/2020;22:34:15;-16,28078212;-17,62566174;-27,44989204;12,26360703;32,66567993;342,7415941;1,368294464;316,8410967
09/04/2020;22:34:18;-16,42839959;-17,50783756;-27,41654587;12,15376282;32,86279297;10,31654141;39,9796961;340,4245873
09/04/2020;22:34:22;-16,57593679;-17,38981531;-27,37804604;11,79975605;32,44467163;13,54627832;87,76099819;17,05393905
09/04/2020;22:34:25;-16,72338863;-17,27159327;-27,14797401;11,9471035;32,39561844;350,520704;128,7996229;44,5740365
09/04/2020;22:34:28;-16,8707585;-17,15316974;-26,90537262;12,19760323;32,43218994;315,4217254;164,3081098;53,50462154
09/04/2020;22:34:31;-17,01804299;-17,03454302;-26,83956146;11,50689602;32,53262329;288,5574849;248,6822736;2,793376189
09/04/2020;22:34:34;-17,21428798;-16,8760536;-26,95467567;11,42013073;32,52568817;315,1052485;333,8168045;311,3852782
09/04/2020;22:34:37;-17,36137098;-16,75694535;-26,81259727;11,30705929;32,2583313;350,590179;9,931790879;320,1957954
09/04/2020;22:34:40;-17,5083669;-16,63762365;-26,76425171;11,3644495;32,60204315;13,68269171;51,38822254;348,4253155
09/04/2020;22:34:43;-17,65527232;-16,51809192;-26,98952293;11,55961132;32,72610092;9,413633945;98,93495545;25,31536021
09/04/2020;22:34:47;-17,80209065;-16,39834334;-27,12352371;11,37315845;32,84752274;342,0308378;136,7272596;48,71356827
09/04/2020;22:34:50;-17,94881677;-16,2783796;-27,06147003;11,27581406;32,77658463;306,1535616;174,6073931;51,83971171
09/04/2020;22:34:53;-18,09545069;-16,15819559;-27,17283249;11,35600948;32,91885376;290,7299563;283,4505661;336,5227018
09/04/2020;22:34:56;-18,2419941;-16,03778961;-27,27719307;11,37500286;33,05020905;324,0767225;344,5375275;310,9193398
09/04/2020;22:34:59;-18,43723848;-15,87690279;-27,16229057;11,52519798;33,20159149;357,4974782;19,22146884;325,2968675
09/04/2020;22:35:02;-18,58356162;-15,75597258;-27,2857933;11,28599548;33,31764221;15,01992579;62,69502356;357,1292305
09/04/2020;22:35:05;-18,72978914;-15,63481527;-27,3643055;11,21141434;33,51424408;4,720348858;108,8189905;32,14912669
09/04/2020;22:35:08;-18,87591933;-15,51342574;-27,33846283;11,01911068;33,74410248;333,915026;145,0258848;51,62548282
09/04/2020;22:35:12;-19,0219539;-15,39180568;-27,35159302;10,99710846;33,78569412;297,8699355;191,842054;43,4937772
09/04/2020;22:35:15;-19,16788772;-15,26994828;-27,40340042;10,99256229;33,84792709;298,3066783;308,5316457;320,3263476
09/04/2020;22:35:18;-19,31372421;-15,14785523;-27,34894562;11,01508427;33,99876785;334,2367126;353,4241487;313,7476767
09/04/2020;22:35:21;-19,50801406;-14,98469055;-27,23938179;10,96252823;34,26012039;4,929079439;29,34473981;333,083763
09/04/2020;22:35:24;-19,65361491;-14,86203401;-27,30004883;10,88930798;34,35743713;15,43490076;75,96706467;8,225344954
09/04/2020;22:35:27;-19,7991116;-14,73913329;-27,24282265;10,97711754;34,52003098;357,5646732;119,6939562;40,25526008
09/04/2020;22:35:30;-19,94450413;-14,61598669;-27,29227829;11,01664925;34,58657455;324,1098216;154,8984997;53,9870378
09/04/2020;22:35:34;-20,0897925;-14,49258908;-27,49636841;10,95904064;34,55010605;291,1018464;217,4979111;26,84762435
09/04/2020;22:35:37;-20,23497671;-14,36894216;-27,53977203;10,99129009;34,72615433;307,0070484;323,5421304;313,7924794
09/04/2020;22:35:40;-20,38005163;-14,24503997;-27,63105965;10,6562109;34,99205017;342,8228665;1,830024751;316,6841219
09/04/2020;22:35:43;-20,52502069;-14,12088165;-27,84736824;10,33949471;35,078125;10,14450346;40,56432956;340,4315883
09/04/2020;22:35:46;-20,71814258;-13,95493622;-27,99333191;10,33309364;34,74882889;13,21273884;88,47906281;17,13108774
09/04/2020;22:35:49;-20,86285551;-13,83017257;-27,91214752;10,28015137;34,20846176;349,654058;129,1043996;45,06198863
09/04/2020;22:35:52;-21,00745574;-13,70514511;-27,76604652;10,36118221;34,16278458;314,4458313;165,2718359;53,31734117
09/04/2020;22:35:55;-21,15194497;-13,57985126;-27,79442978;10,34757423;34,37086868;288,7781068;252,9122712;359,5778836
09/04/2020;22:35:59;-21,29632151;-13,45428933;-27,78347778;10,23289299;34,73756027;316,7748951;335,4455314;311,5595437
09/04/2020;22:36:02;-21,44058364;-13,32845676;-27,86314774;10,37351418;35,05660248;351,555587;10,85591035;321,4894844
09/04/2020;22:36:05;-21,58472966;-13,20235183;-27,78264999;10,63159084;34,96432877;13,8664127;52,4380192;350,0136163
09/04/2020;22:36:08;-21,77674336;-13,03378276;-27,60346413;10,46349716;34,91905975;9,286121144;100,1929055;26,39367974
09/04/2020;22:36:11;-21,92061617;-12,90703153;-27,63614845;10,22150993;34,94399643;341,6616729;138,2687786;49,05071324
09/04/2020;22:36:14;-22,06436945;-12,7799994;-27,62679863;10,43436527;34,72489548;305,6005417;177,6371967;49,74417552
09/04/2020;22:36:17;-22,20800321;-12,65268382;-27,68161011;10,4579401;34,84949875;292,1910362;286,1855856;333,9723877
09/04/2020;22:36:21;-22,35151573;-12,52508308;-27,93668556;10,39137268;35,03123474;325,5265702;344,6344598;311,277952
09/04/2020;22:36:24;-22,4949053;-12,39719376;-27,90226173;10,35355949;35,22091293;359,1837058;19,63830675;325,8265077
09/04/2020;22:36:27;-22,63817194;-12,26901416;-27,98483276;10,21244049;35,37189484;16,14542656;64,44348369;358,1330369
09/04/2020;22:36:30;-22,78131392;-12,14054172;-28,08234596;10,25799751;35,47744751;4,642180758;110,7582178;32,47220147
09/04/2020;22:36:33;-22,97197524;-11,96878637;-28,09395599;10,02654171;35,38922501;333,6602634;147,1496501;50,22166038
09/04/2020;22:36:36;-23,11482181;-11,83962152;-28,11495972;9,650543213;35,45817184;298,0034248;194,7454308;40,04864686
09/04/2020;22:36:39;-23,25754203;-11,71015528;-28,11433792;9,729631424;35,19359589;300,1104971;307,5356675;320,3373408
09/04/2020;22:36:42;-23,40013077;-11,58038595;-28,13885117;9,770465851;35,02424622;335,8358682;352,7501495;313,0428456
09/04/2020;22:36:46;-23,54258973;-11,45031098;-28,08894539;9,635804176;35,21154022;6,843306548;29,41104728;332,0558263
09/04/2020;22:36:49;-23,68491721;-11,31992779;-28,09665489;9,535141945;35,46030426;17,27842858;76,56150969;7,272739324
09/04/2020;22:36:52;-23,8271098;-11,18923383;-28,14463997;9,640018463;35,38311386;359,090505;121,27744;39,12929315
09/04/2020;22:36:55;-23,9691709;-11,05822568;-28,36592865;9,789489746;35,47520065;324,8831356;157,1646882;51,73999436
09/04/2020;22:36:58;-24,15837397;-10,88305779;-28,50435448;9,728567123;35,49269867;292,940868;220,4249477;23,16030233
09/04/2020;22:37:01;-24,30011576;-10,75130942;-28,63421249;9,747643471;35,50880814;308,4066532;321,3164928;314,7347962
09/04/2020;22:37:04;-24,44171925;-10,61923917;-28,75299072;9,921145439;35,64736938;344,5844355;0,677942699;316,0603993
09/04/2020;22:37:07;-24,58318442;-10,48684449;-28,76724052;10,03786182;35,79686356;11,86175389;40,18929411;339,3725026
09/04/2020;22:37:11;-24,72450957;-10,35412367;-28,7218895;9,997849464;35,91920853;14,96556431;89,20026248;16,33330798
09/04/2020;22:37:14;-24,86569299;-10,2210733;-28,61292076;9,804953575;36,13980103;351,3503825;130,7868255;43,48096035
09/04/2020;22:37:17;-25,00673299;-10,0876908;-28,74573517;9,695088387;36,11975479;315,7613531;167,5142826;50,42683243
09/04/2020;22:37:20;-25,19456148;-9,90932724;-28,63228989;9,604971886;36,1115799;290,6615315;253,8820829;357,5736929
09/04/2020;22:37:23;-25,33526167;-9,775160127;-28,44053841;9,54967308;36,23527527;317,982797;333,9627605;311,8249956
09/04/2020;22:37:26;-25,47581672;-9,640652358;-28,47609329;9,500725746;36,33830643;353,155403;9,848864698;319,9306064
09/04/2020;22:37:29;-25,61622321;-9,505802225;-28,52966118;9,392379761;36,66889572;16,0535588;51,94037845;347,894475
09/04/2020;22:37:33;-25,75647944;-9,370605461;-28,42872429;9,464375496;36,82920074;11,18420169;100,8992359;24,99397248
09/04/2020;22:37:36;-25,89658369;-9,235061211;-28,42712402;9,592405319;36,96820831;343,030313;139,7776084;47,3448735
09/04/2020;22:37:39;-26,03653768;-9,099165206;-28,27693939;9,644548416;36,8817482;307,0966024;180,5136389;46,53853893
09/04/2020;22:37:42;-26,17633799;-8,962916592;-28,3058815;9,692856789;36,95590591;294,1021095;283,5832698;335,9727776
09/04/2020;22:37:45;-26,36249651;-8,780695683;-28,44954109;9,558767319;37,00784302;327,1169831;342,6702904;311,7484906
09/04/2020;22:37:48;-26,5019314;-8,643611225;-28,49329185;9,531639099;36,79106522;0,755945434;18,51198294;325,1802898
09/04/2020;22:37:51;-26,64121091;-8,506163913;-28,42861366;9,498102188;36,7089386;18,39672179;63,77312111;357,3141214
09/04/2020;22:37:54;-26,78032991;-8,368351186;-28,51468658;9,3400774;36,94726563;6,458032653;111,5994785;32,16608946
09/04/2020;22:37:58;-26,91928841;-8,230170483;-28,38972092;9,306195259;36,74218369;334,8162183;148,6174851;49,9715935
09/04/2020;22:38:01;-27,05808468;-8,091619242;-28,40275192;9,466050148;36,65785599;299,8827581;196,0138243;39,13266043
09/04/2020;22:38:04;-27,19671874;-7,952694902;-28,48929405;9,601815224;36,72032547;300,4603326;303,7903196;323,4410402
09/04/2020;22:38:07;-27,33518716;-7,813394047;-28,45689392;9,45788765;36,63650513;336,0152409;350,5759611;313,6546871
09/04/2020;22:38:10;-27,51955446;-7,627070756;-28,12260056;9,377661705;36,73199081;7,589034286;27,61836168;331,8009186
09/04/2020;22:38:13;-27,65763356;-7,486881977;-28,2566967;9,516222954;36,79060745;18,9893978;75,70751748;6,958062691
09/04/2020;22:38:16;-27,79554362;-7,346308146;-28,30904961;9,568231583;36,86637115;0,705952078;121,4702972;38,6122854
09/04/2020;22:38:19;-27,93328292;-7,205345848;-28,34991837;9,519873619;37,10664749;326,5284736;157,9131403;50,90250388
09/04/2020;22:38:23;-28,07084976;-7,063993375;-28,61302376;9,570224762;37,23190308;294,2772492;219,4523698;23,67141051
09/04/2020;22:38:26;-28,20824243;-6,922247313;-28,8195343;9,464548111;37,25473785;309,1887509;318,8565865;316,3691853
09/04/2020;22:38:29;-28,34546093;-6,780104673;-28,96010399;9,528098106;37,1674614;345,4478653;359,1319335;316,1124317
09/04/2020;22:38:32;-28,48250356;-6,637562894;-28,76555824;9,624363899;37,1153183;13,81702702;39,31139965;339,1873105
09/04/2020;22:38:35;-28,66495157;-6,446881942;-28,75483894;9,612236023;37,40283585;16,81646361;89,20125969;16,46944561
09/04/2020;22:38:38;-28,80157584;-6,303398024;-28,67939377;9,658969879;37,50263596;352,8566488;131,3408494;43,1967152
09/04/2020;22:38:41;-28,93801912;-6,159505148;-28,73073196;9,493537903;37,42101669;317,0249381;168,1952388;49,40334908
09/04/2020;22:38:44;-29,07427798;-6,015201607;-28,82698631;9,570861816;37,10707092;292,0317562;251,6674897;359,0499134
09/04/2020;22:38:48;-29,21035583;-5,870483559;-29,0880661;9,637916565;36,90032196;318,7068654;331,3968207;312,4122689
09/04/2020;22:38:51;-29,34624586;-5,725348015;-28,87945938;9,719549179;36,69799423;354,0699709;8,307970606;319,704534
09/04/2020;22:38:54;-29,48194806;-5,579792842;-28,67040634;9,836961746;37,00498199;17,21690736;51,09075414;347,3875742
09/04/2020;22:38:57;-29,6625929;-5,385061161;-28,56258392;9,876210213;37,26732254;12,77761566;100,721972;24,13662323
09/04/2020;22:39:00;-29,79785456;-5,238514756;-28,39805412;9,838745117;37,54214859;344,4911112;140,3967787;45,99854076
09/04/2020;22:39:03;-29,93292155;-5,091538477;-28,38510132;10,02489948;37,26791;308,2463077;180,8227049;44,77041469
09/04/2020;22:39:06;-30,06779388;-4,944130188;-28,68862915;9,963307381;37,22542953;295,1355308;281,06418;336,895823
09/04/2020;22:39:10;-30,20247155;-4,796286047;-28,65759468;9,696482658;37,50854874;327,4913902;341,3160722;311,3480127
09/04/2020;22:39:13;-30,33695456;-4,648003921;-28,65079498;9,536227226;37,63258743;1,424952058;17,37847719;324,0826238
09/04/2020;22:39:16;-30,47123608;-4,499280394;-28,58106232;9,654906273;37,66258621;19,26624244;62,86020486;356,0678563
09/04/2020;22:39:19;-30,60531952;-4,350112478;-28,49832916;9,888425827;37,57759094;7,796682282;111,2010053;31,48018479
09/04/2020;22:39:22;-30,7837787;-4,150526239;-28,33005905;9,863217354;37,69642258;336,2050911;148,4181529;49,00777867
09/04/2020;22:39:25;-30,91738745;-4,000310316;-28,4673233;9,644953728;37,95074463;301,4761047;195,5445493;38,51337401
09/04/2020;22:39:28;-31,05079129;-3,849640612;-28,38788795;9,594911575;38,2243576;300,6618027;300,0497836;325,3767773
09/04/2020;22:39:31;-31,18398339;-3,698513712;-28,53953743;9,33026123;38,39988327;335,5739731;348,8787488;313,1337076
09/04/2020;22:39:35;-31,31697059;-3,546926627;-28,42175293;9,28331852;38,36955261;6,898943989;26,19746718;330,1496349
09/04/2020;22:39:38;-31,44974605;-3,394876585;-28,54023361;9,545395851;38,10352325;19,00761391;73,74241058;4,752079782
09/04/2020;22:39:41;-31,58230636;-3,242360382;-28,47133446;9,865888596;37,78845596;1,862801121;119,9421516;37,0238566
09/04/2020;22:39:44;-31,71465494;-3,089375243;-28,57413864;10,0086298;37,67098236;328,1139722;156,4899611;50,25221865
09/04/2020;22:39:47;-31,89078503;-2,884660387;-28,56752777;9,804060936;37,81999588;295,4745814;215,4285687;26,06506909
09/04/2020;22:39:50;-32,02262475;-2,730568971;-28,51351357;9,59392643;37,78414917;307,8787206;315,4316326;317,7444234
09/04/2020;22:39:53;-32,15424591;-2,575998588;-28,54199791;9,518951416;37,76539993;343,8755387;357,2030288;315,1921695
09/04/2020;22:39:57;-32,28564851;-2,420946037;-28,63846397;9,696429253;37,74304962;12,69026011;36,94885088;337,3448055
09/04/2020;22:40:00;-32,41682571;-2,265408329;-28,72181702;9,729499817;37,62541962;17,61124662;86,63187913;14,93343681
09/04/2020;22:40:03;-32,54777409;-2,109382476;-28,80664825;9,719865799;37,81465149;354,489899;129,6619616;42,61226616
09/04/2020;22:40:06;-32,6785005;-1,952865276;-28,95976448;9,62128067;38,03331757;319,0777754;167,0333826;49,61617436
09/04/2020;22:40:09;-32,85244151;-1,743406106;-29,00027084;9,592328072;38,16172409;292,9226314;246,1479319;3,572348165
09/04/2020;22:40:12;-32,98263175;-1,585730548;-28,83912659;9,462098122;38,13308716;317,4562611;328,4540268;313,7548006
09/04/2020;22:40:15;-33,11258634;-1,427553613;-28,92478371;9,481309891;37,91228485;353,1849184;5,902732724;319,2179308
09/04/2020;22:40:18;-33,24230529;-1,26887199;-29,07850647;9,648059845;37,85638428;17,78270145;48,19394797;345,648941
09/04/2020;22:40:22;-33,37178861;-1,109682798;-28,95905304;9,503085136;37,6419754;14,92637952;99,35156967;23,61933373
09/04/2020;22:40:25;-33,50103286;-0,94998273;-28,90685654;9,281855583;37,60377121;346,8312886;139,4695805;46,5058394
09/04/2020;22:40:28;-33,63003806;-0,789768851;-28,87789536;9,302340508;37,67399216;310,5218877;180,1743834;45,63800239
09/04/2020;22:40:31;-33,75880078;-0,629038011;-28,94699097;9,454647064;37,94647598;295,513773;275,8906805;341,2760763
09/04/2020;22:40:34;-33,93010193;-0,413920776;-28,62272835;9,579089165;38,23883438;326,7436279;338,9312963;312,2233117
09/04/2020;22:40:37;-34,05829092;-0,251971655;-28,63848305;9,579380035;38,52739716;1,036200422;15,7024239;323,6242293
09/04/2020;22:40:40;-34,18623061;-0,089495228;-28,57170296;9,399884224;38,50583267;19,63644211;61,82450912;355,1866585
09/04/2020;22:40:43;-34,31392099;0,073511625;-28,65824699;9,541572571;38,50363922;8,841898447;110,9433228;30,65303522
09/04/2020;22:40:47;-34,44135866;0,237052014;-28,74332237;9,620377541;38,47302628;337,145224;148,619097;48,38638855
09/04/2020;22:40:50;-34,5685402;0,401129059;-28,77160072;9,75339222;38,59612274;301,7047316;195,9245401;37,767029
09/04/2020;22:40:53;-34,69546902;0,565745903;-28,62146759;9,866014481;38,83376694;301,2313175;300,1928556;325,2337907
09/04/2020;22:40:56;-34,82213488;0,73090564;-28,60757637;9,890300751;38,79167175;336,4076967;348,2966826;313,2752633
09/04/2020;22:40:59;-34,99061857;0,951968501;-28,7545414;9,940502167;38,49655914;8,347215166;26,05938808;329,7342638
09/04/2020;22:41:02;-35,11667654;1,118407191;-28,94839859;9,915411949;38,32681656;20,24765525;76,3150628;5,955204371
09/04/2020;22:41:05;-35,24246814;1,285399233;-29,10630608;9,630208969;38,30170441;1,374774073;122,5758043;37,59434132
09/04/2020;22:41:09;-35,36798994;1,452947829;-28,83609772;9,561658859;38,31774902;326,8668787;159,3086436;49,31103907
09/04/2020;22:41:12;-35,49324536;1,621055967;-29,02038956;9,509132385;38,42981339;294,9174292;221,0324794;21,79390079
09/04/2020;22:41:15;-35,61822758;1,789726741;-28,94931984;9,345020294;38,26455307;309,6503214;318,8552;316,5489047
09/04/2020;22:41:18;-35,74294;1,958963568;-28,88751221;9,226858139;38,31753922;346,1165938;359,0294537;316,5413368
09/04/2020;22:41:21;-35,90878724;2,185498104;-28,60015678;9,307307243;38,47227097;14,05444269;39,50609078;339,5516106
09/04/2020;22:41:24;-36,0328508;2,356067564;-28,55870628;9,422400475;38,71656799;16,76864717;90,3430146;16,98031131
09/04/2020;22:41:27;-36,15663431;2,527213108;-28,40631294;9,572359085;38,39686966;351,9233431;132,6511802;43,86481015
09/04/2020;22:41:31;-36,28013438;2,698938151;-28,20297432;9,463511467;38,32273865;315,7509849;170,1971946;48,79157245
09/04/2020;22:41:34;-36,40334758;2,871245895;-28,11275673;9,396588326;38,30546951;292,4439513;256,2731819;355,3933674
09/04/2020;22:41:37;-36,52627732;3,044139327;-27,91198349;9,5225811;38,06707001;319,928612;332,1499788;312,2507247
09/04/2020;22:41:40;-36,64891337;3,217621436;-27,95890045;9,611256599;37,96019745;355,2968914;8,888167856;319,9105496
09/04/2020;22:41:43;-36,81197731;3,44985235;-27,9513855;9,695304871;37,99972534;18,608625;52,43422845;348,0807871
09/04/2020;22:41:46;-36,93393375;3,624720775;-28,19639397;9,817566872;38,19477081;13,17350965;102,8850656;25,03537538
09/04/2020;22:41:49;-37,05558966;3,800188334;-28,29608154;9,685594559;38,23946762;343,7911586;142,3907568;46,53404466
09/04/2020;22:41:52;-37,17694846;3,976257805;-28,36640358;9,618481636;38,15633392;307,796953;184,7322369;43,21786829
09/04/2020;22:41:56;-37,29800674;4,152933027;-28,21457672;9,658495903;38,4112854;296,9407361;285,0360989;334,7578953
09/04/2020;22:41:59;-37,41876107;4,33021699;-28,18968964;9,743015289;38,45326996;330,4449348;341,7524308;312,4187815
09/04/2020;22:42:02;-37,53920804;4,508112256;-28,21232605;9,893454552;38,48546982;4,503269225;19,37323735;325,5995303
09/04/2020;22:42:05;-37,65934765;4,686622665;-28,36243439;9,912259102;38,68214035;20,52402348;67,14605977;358,9776603
09/04/2020;22:42:08;-37,81905113;4,925597323;-28,62356567;9,702589989;38,38537216;6,57899018;115,5252459;33,098301
09/04/2020;22:42:11;-37,93846333;5,105554025;-28,58945274;9,736176491;38,39498901;333,733203;152,9170072;48,100832
09/04/2020;22:42:14;-38,05756134;5,286135262;-28,65887833;9,756308556;38,54010773;299,7049068;205,3534523;31,34857388
09/04/2020;22:42:17;-38,17633833;5,467344449;-28,81376648;9,798312187;38,48403168;305,24376;307,1022817;320,7027525
09/04/2020;22:42:21;-38,2947943;5,649185003;-28,87254906;9,958862305;38,40676117;340,9852571;351,9458657;313,4812345
09/04/2020;22:42:24;-38,41292925;5,831659483;-29,00632668;9,981921196;37,97635269;11,65903644;31,20869843;332,8785704
09/04/2020;22:42:27;-38,53073635;6,014770878;-28,96190071;10,06234169;38,08592606;19,87971296;81,7888652;9,309205475
09/04/2020;22:42:30;-38,68730478;6,259915759;-28,88356018;10,10853863;38,16872787;358,5394569;126,6086348;38,94017546
09/04/2020;22:42:33;-38,80434349;6,444525527;-28,66445923;10,07806015;38,25645447;323,414119;163,621307;47,98312735
09/04/2020;22:42:36;-38,92105093;6,629782455;-28,52653885;10,07628822;38,05783844;294,103981;233,7879533;11,53684264
09/04/2020;22:42:39;-39,03742028;6,815689532;-28,38953018;9,999394417;38,14338303;314,0955246;323,4880148;314,0440455
09/04/2020;22:42:43;-39,15345153;7,002249319;-28,2533474;9,888568878;38,21340179;350,3086412;2,266277471;316,5793878
09/04/2020;22:42:46;-39,26914127;7,189465658;-28,42271996;9,806459427;38,33985519;16,97229096;44,22691263;341,8685474
09/04/2020;22:42:49;-39,38448609;7,377340256;-28,47783089;9,688897133;38,41862106;16,25365261;95,20012605;19,70232441
09/04/2020;22:42:52;-39,49948599;7,565877383;-28,45388412;9,610705376;38,0551033;349,4410279;136,3968833;44,48851571
09/04/2020;22:42:55;-39,65227732;7,818293854;-28,45479012;9,461678505;37,83388901;313,2329981;175,310001;46,82243574
09/04/2020;22:42:58;-39,76645759;8,008385703;-28,37586784;9,519721031;37,64043427;293,5769841;266,41492;347,8518776
09/04/2020;22:43:01;-39,88028611;8,199149471;-28,41593742;9,709861755;37,67063141;323,3981774;335,8382229;312,0283781
09/04/2020;22:43:04;-39,99375604;8,390587721;-28,54625893;9,891792297;37,65440369;358,3930654;12,52757951;321,9576358
09/04/2020;22:43:08;-40,10686398;8,582703013;-28,42528152;9,945645332;37,60502243;19,06296406;56,31957131;351,369723
09/04/2020;22:43:11;-40,21961332;8,775497909;-28,54080582;9,99660778;37,51901245;11,13239299;106,0376009;27,6750181
09/04/2020;22:43:14;-40,33199384;8,96897497;-28,42641068;9,854011536;37,83532333;340,8569844;144,7083902;47,65386784
09/04/2020;22:43:17;-40,44400553;9,163138465;-28,38130951;9,800460815;38,00298309;304,9473946;188,3644222;42,11904112
09/04/2020;22:43:20;-40,59278071;9,423093757;-28,42279434;9,84552002;37,93696594;297,8111822;291,3149688;330,6780628
09/04/2020;22:43:23;-40,70392496;9,618866616;-28,2820797;10,0378828;37,80797958;331,8252989;344,8539104;312,1389828
09/04/2020;22:43:26;-40,81469356;9,815334446;-28,344347;10,20537949;37,93616104;4,929238668;21,60689704;326,9362666
09/04/2020;22:43:29;-40,92508307;10,01249896;-28,40463448;10,21772766;38,16904831;20,00178039;69,5108625;0,889487371
09/04/2020;22:43:33;-41,03508668;10,21036356;-28,30200386;10,00662327;38,13447571;4,811014924;116,843609;34,14007902
09/04/2020;22:43:36;-41,14470781;10,40893082;-28,30809402;9,923092842;38,17177582;331,5132839;154,0100697;48,93360623
09/04/2020;22:43:39;-41,25393961;10,6082033;-28,48297501;10,07835007;38,2035408;297,9136351;207,4282862;30,6632566
09/04/2020;22:43:42;-41,36278209;10,8081827;-28,51430511;9,881908417;38,37253571;305,3053922;309,7832881;320,043366
09/04/2020;22:43:45;-41,50729181;11,07592697;-28,55182648;9,875648499;38,20381927;340,6118967;353,5548256;314,3130935
09/04/2020;22:43:48;-41,61521222;11,27756781;-28,81875038;10,07298851;37,91099167;11,03216765;32,2910546;334,1402276
09/04/2020;22:43:51;-41,72272964;11,47992412;-28,69734192;10,16750145;37,88049316;18,70532682;81,95769381;10,3190959
09/04/2020;22:43:54;-41,8298475;11,68299845;-28,73176575;10,22270107;37,91070557;357,4302626;126,4274026;39,91990804
09/04/2020;22:43:58;-41,93655554;11,88679422;-28,79311562;10,47672558;37,73885345;322,1496051;163,0331048;49,41475891
09/04/2020;22:44:01;-42,04285719;12,09131228;-28,54515648;10,47437572;37,85508347;292,880858;235,225148;10,84643005
09/04/2020;22:44:04;-42,14874903;12,29655605;-28,41751289;10,33058357;37,80083847;313,6416312;325,1827077;313,4972854
09/04/2020;22:44:07;-42,25422422;12,50252809;-28,55950165;10,42196465;37,4612999;349,1708563;3,107704269;317,110032
09/04/2020;22:44:10;-42,39420895;12,77829271;-28,37524605;10,30972481;37,57873917;15,24703982;44,29813784;342,2745612
09/04/2020;22:44:13;-42,49870402;12,98597058;-28,36354637;10,06460381;37,69566345;15,2549765;93,84711338;19,41654075
09/04/2020;22:44:16;-42,60277902;13,19438442;-28,54021263;9,889561653;37,58623505;349,0941089;134,8567986;44,69694917
09/04/2020;22:44:19;-42,70642373;13,4035342;-28,91685104;10,12765217;37,42941284;313,6786918;172,7872569;48,1545651
09/04/2020;22:44:23;-42,80963813;13,6134242;-28,89195824;10,02497578;37,64213181;292,7811236;262,6645656;351,2273102
09/04/2020;22:44:26;-42,91242223;13,82405529;-28,97486877;9,942007065;37,6274147;321,775;334,962316;312,4453099
09/04/2020;22:44:29;-43,0147692;14,03543;-29,02311516;10,00842857;37,21863174;356,4970419;11,22945084;322,1004414
09/04/2020;22:44:32;-43,11667563;14,24755007;-28,99270058;10,20167065;37,48981094;18,30836305;55,22236631;351,4324344
09/04/2020;22:44:35;-43,25186215;14,53153823;-29,05176926;10,25419044;37,7155571;11,3703491;104,8308567;28,08587789
09/04/2020;22:44:38;-43,35273379;14,74540512;-28,89382553;10,22683716;38,06521606;341,4770136;143,3940706;48,73028516
09/04/2020;22:44:41;-43,45315465;14,96002332;-28,70659637;10,02102661;37,91333389;305,5575935;186,4987561;44,27904746
09/04/2020;22:44:45;-43,55312471;15,17539285;-28,76324844;10,25704002;37,81945801;297,3682991;289,5908105;332,5765753
09/04/2020;22:44:48;-43,65263716;15,39151881;-28,79711342;10,45003128;37,67187881;331,4695434;344,3805373;312,821708
09/04/2020;22:44:51;-43,75169197;15,60840293;-28,94921494;10,64936543;37,36418152;4,504117449;21,55947162;327,5997512
09/04/2020;22:44:54;-43,85028575;15,8260435;-28,95562935;10,72727871;37,12713623;19,42189562;68,44737473;0,872213076
09/04/2020;22:44:57;-43,98101899;16,11741254;-29,05615044;10,71362114;37,19244003;4,620788606;115,8927237;34,67812717
09/04/2020;22:45:00;-44,07852336;16,33682895;-29,06156921;10,41376686;37,4246254;331,9283494;151,9626659;50,27824167
09/04/2020;22:45:03;-44,17555644;16,55700863;-29,11919403;10,28142452;37,51921082;297,5283305;203,8852621;33,97886948
09/04/2020;22:45:06;-44,27211482;16,77795159;-29,09431839;10,41976166;37,69488907;303,4250718;309,5274019;320,1622557
09/04/2020;22:45:10;-44,36819168;16,99966124;-28,81108093;10,46894836;37,61497116;339,2008599;353,3355475;314,4710996
09/04/2020;22:45:13;-44,46379042;17,22213928;-29,00051689;10,54269505;37,30216217;9,691702899;31,03040317;334,1080267
09/04/2020;22:45:16;-44,55890422;17,44538402;-29,13105774;10,64770126;37,04039001;18,05777878;79,72870256;9,831723485
09/04/2020;22:45:19;-44,65352966;17,66939885;-29,33623314;10,68012142;37,02814102;358,1453481;123,8067;40,24602908
09/04/2020;22:45:22;-44,77893193;17,96928343;-29,28084946;10,88394928;37,07780075;323,7619157;159,5393264;51,57218344
09/04/2020;22:45:25;-44,87240307;18,19509802;-29,45475197;11,02200985;36,36725616;292,844016;227,6460832;18,19139094
09/04/2020;22:45:28;-44,96537902;18,42168443;-29,65791512;11,03668499;36,47570419;311,2760293;323,1884803;315,1897073
09/04/2020;22:45:31;-45,05785295;18,64904606;-29,7583065;11,03407192;36,6425705;347,3929085;2,121299662;317,7662117
09/04/2020;22:45:35;-45,14982145;18,87718121;-29,93063354;10,96134281;36,90685654;14,308892;42,04721827;342,3688007
09/04/2020;22:45:38;-45,24128451;19,10609158;-30,59755135;11,07958317;37,06443405;15,44319944;92,09710281;19,72854038
09/04/2020;22:45:41;-45,3322319;19,33577718;-30,27210999;11,28963089;37,19610977;350,1019434;133,8968838;45,56937607
09/04/2020;22:45:44;-45,42266702;19,56623972;-29,94790077;11,30076981;37,24233246;314,4836808;171,6573661;50,00018808
09/04/2020;22:45:47;-45,5424378;19,87473033;-30,05987549;11,38335228;37,33433914;292,6355859;260,5126257;353,7890537
09/04/2020;22:45:50;-45,63166056;20,10700628;-30,14282417;11,38097;37,44806671;320,9450398;333,5043438;313,8760023
09/04/2020;22:45:53;-45,72035398;20,34006088;-30,19711113;11,29438591;37,3339653;356,278828;9,966375542;322,3418954
09/04/2020;22:45:56;-45,80852148;20,5738924;-30,39044571;11,14016056;37,15711212;18,56238291;54,07578245;351,2481781
09/04/2020;22:46:00;-45,89615281;20,80850086;-30,32053566;10,93885708;36,87552261;11,91959108;103,9690303;27,96822617
09/04/2020;22:46:03;-45,98325138;21,04388967;-30,37038803;10,95105076;37,09044266;342,1740174;143,0109926;48,43598256
09/04/2020;22:46:06;-46,06981037;21,28005542;-30,80997086;11,12338066;37,32915497;306,3919933;185,3456835;44,84579266
09/04/2020;22:46:09;-46,15582635;21,5169998;-30,69018173;11,15184498;37,27659225;297,0231492;286,5493956;334,7820058
09/04/2020;22:46:12;-46,26966853;21,83413573;-30,72883606;11,20759392;37,31056213;330,6976654;343,2193232;313,3299116
09/04/2020;22:46:15;-46,35440727;22,07289524;-30,68913078;11,39421272;37,4224968;3,96698625;19,97023858;327,3408665
09/04/2020;22:46:18;-46,43859277;22,31243339;-30,52176094;11,30684948;37,36787033;19,9195654;67,55373327;0,309889204
09/04/2020;22:46:22;-46,52222161;22,55274676;-30,52378082;11,46709251;37,19768906;5,571087339;115,3060651;34,38212043
09/04/2020;22:46:25;-46,60529037;22,79383707;-30,47661591;11,47250652;36,93073273;332,8904977;152,075965;49,90908019
09/04/2020;22:46:28;-46,68779564;23,03570261;-30,43278885;11,40177727;36,63422775;298,759151;203,795691;33,66556529
09/04/2020;22:46:31;-46,769734;23,27834337;-30,48618126;11,68274498;36,66230774;303,9416117;308,250983;320,9526828
09/04/2020;22:46:34;-46,87809837;23,60306935;-30,50757027;11,77069569;36,80467606;339,6199706;352,5772211;314,3293903
09/04/2020;22:46:37;-46,95870143;23,84751669;-30,60316849;11,66846848;37,50867844;10,11132411;31,26186462;333,7487212
09/04/2020;22:46:40;-47,03872734;24,09273415;-30,59418297;11,69656658;37,27924347;18,62648082;80,51631216;9,859052779
09/04/2020;22:46:43;-47,11817269;24,33872341;-30,75925255;11,76695728;37,38657761;358,2247103;124,7789228;40,21637923
09/04/2020;22:46:47;-47,19703064;24,58548278;-30,93001175;11,78973866;37,30966568;323,5782075;160,8602987;50,83454009
